{
"stops_with_routes": [
	{
		"stop_id" : "OTAG4",
		"stop_name" : "50 Otages",
		"stop_lat" : "47.21986211",
		"stop_lon" : "-1.55516649",
		"wheelchair_boarding" : "1",
		"route_id" : "12-0",
		"trip_headsign" : "Beauséjour",
		"route_type" : 3,
		"route_color" : "B5DDF3",
		"route_text_color" : "000000"
	},
	{
		"stop_id" : "OTAG3",
		"stop_name" : "50 Otages",
		"stop_lat" : "47.21976800",
		"stop_lon" : "-1.55563291",
		"wheelchair_boarding" : "1",
		"route_id" : "12-0",
		"trip_headsign" : "Jules Verne",
		"route_type" : 3,
		"route_color" : "B5DDF3",
		"route_text_color" : "000000"
	},
	{
		"stop_id" : "OTAG1",
		"stop_name" : "50 Otages",
		"stop_lat" : "47.22017701",
		"stop_lon" : "-1.55546966",
		"wheelchair_boarding" : "1",
		"route_id" : "2-0",
		"trip_headsign" : "Orvault Grand Val",
		"route_type" : 0,
		"route_color" : "E53138",
		"route_text_color" : "FFFFFF"
	},
	{
		"stop_id" : "OTAG2",
		"stop_name" : "50 Otages",
		"stop_lat" : "47.21993331",
		"stop_lon" : "-1.55593842",
		"wheelchair_boarding" : "1",
		"route_id" : "2-0",
		"trip_headsign" : "Gare de Pont Rousseau",
		"route_type" : 0,
		"route_color" : "E53138",
		"route_text_color" : "FFFFFF"
	},
	{
		"stop_id" : "OTAG4",
		"stop_name" : "50 Otages",
		"stop_lat" : "47.21986211",
		"stop_lon" : "-1.55516649",
		"wheelchair_boarding" : "1",
		"route_id" : "23-0",
		"trip_headsign" : "Haluchère Batignolles",
		"route_type" : 3,
		"route_color" : "34B4E4",
		"route_text_color" : "FFFFFF"
	},
	{
		"stop_id" : "OTAG3",
		"stop_name" : "50 Otages",
		"stop_lat" : "47.21976800",
		"stop_lon" : "-1.55563291",
		"wheelchair_boarding" : "1",
		"route_id" : "23-0",
		"trip_headsign" : "Mendès France - Bellevue",
		"route_type" : 3,
		"route_color" : "34B4E4",
		"route_text_color" : "FFFFFF"
	},
	{
		"stop_id" : "OTAG3",
		"stop_name" : "50 Otages",
		"stop_lat" : "47.21976800",
		"stop_lon" : "-1.55563291",
		"wheelchair_boarding" : "1",
		"route_id" : "2B-0",
		"trip_headsign" : "Gare de Pont Rousseau",
		"route_type" : 3,
		"route_color" : "E53138",
		"route_text_color" : "FFFFFF"
	},
	{
		"stop_id" : "OTAG4",
		"stop_name" : "50 Otages",
		"stop_lat" : "47.21986211",
		"stop_lon" : "-1.55516649",
		"wheelchair_boarding" : "1",
		"route_id" : "2B-0",
		"trip_headsign" : "Orvault Grand Val",
		"route_type" : 3,
		"route_color" : "E53138",
		"route_text_color" : "FFFFFF"
	},
	{
		"stop_id" : "OTAG4",
		"stop_name" : "50 Otages",
		"stop_lat" : "47.21986211",
		"stop_lon" : "-1.55516649",
		"wheelchair_boarding" : "1",
		"route_id" : "C2-0",
		"trip_headsign" : "Le Cardo",
		"route_type" : 3,
		"route_color" : "ED7703",
		"route_text_color" : "FFFFFF"
	},
	{
		"stop_id" : "OTAG3",
		"stop_name" : "50 Otages",
		"stop_lat" : "47.21976800",
		"stop_lon" : "-1.55563291",
		"wheelchair_boarding" : "1",
		"route_id" : "C2-0",
		"trip_headsign" : "Gare Sud",
		"route_type" : 3,
		"route_color" : "ED7703",
		"route_text_color" : "FFFFFF"
	},
	{
		"stop_id" : "OTAG3",
		"stop_name" : "50 Otages",
		"stop_lat" : "47.21976800",
		"stop_lon" : "-1.55563291",
		"wheelchair_boarding" : "1",
		"route_id" : "NO-0",
		"trip_headsign" : "Hangar à Bananes",
		"route_type" : 3,
		"route_color" : "FFFA3E",
		"route_text_color" : "242D77"
	},
	{
		"stop_id" : "MAI81",
		"stop_name" : "8 Mai",
		"stop_lat" : "47.18950295",
		"stop_lon" : "-1.55130764",
		"wheelchair_boarding" : "1",
		"route_id" : "2-0",
		"trip_headsign" : "Orvault Grand Val",
		"route_type" : 0,
		"route_color" : "E53138",
		"route_text_color" : "FFFFFF"
	},
	{
		"stop_id" : "MAI82",
		"stop_name" : "8 Mai",
		"stop_lat" : "47.18927594",
		"stop_lon" : "-1.55168223",
		"wheelchair_boarding" : "1",
		"route_id" : "2-0",
		"trip_headsign" : "Gare de Pont Rousseau",
		"route_type" : 0,
		"route_color" : "E53138",
		"route_text_color" : "FFFFFF"
	},
	{
		"stop_id" : "MAI81",
		"stop_name" : "8 Mai",
		"stop_lat" : "47.18950295",
		"stop_lon" : "-1.55130764",
		"wheelchair_boarding" : "1",
		"route_id" : "3-0",
		"trip_headsign" : "Marcel Paul",
		"route_type" : 0,
		"route_color" : "0079BC",
		"route_text_color" : "FFFFFF"
	},
	{
		"stop_id" : "MAI82",
		"stop_name" : "8 Mai",
		"stop_lat" : "47.18927594",
		"stop_lon" : "-1.55168223",
		"wheelchair_boarding" : "1",
		"route_id" : "3-0",
		"trip_headsign" : "Neustrie",
		"route_type" : 0,
		"route_color" : "0079BC",
		"route_text_color" : "FFFFFF"
	},
	{
		"stop_id" : "MAI85",
		"stop_name" : "8 Mai",
		"stop_lat" : "47.18897552",
		"stop_lon" : "-1.55105661",
		"wheelchair_boarding" : "1",
		"route_id" : "38-0",
		"trip_headsign" : "Greneraie",
		"route_type" : 3,
		"route_color" : "009640",
		"route_text_color" : "FFFFFF"
	},
	{
		"stop_id" : "MAI86",
		"stop_name" : "8 Mai",
		"stop_lat" : "47.18919907",
		"stop_lon" : "-1.55110456",
		"wheelchair_boarding" : "1",
		"route_id" : "38-0",
		"trip_headsign" : "Aéroport",
		"route_type" : 3,
		"route_color" : "009640",
		"route_text_color" : "FFFFFF"
	},
	{
		"stop_id" : "MAI83",
		"stop_name" : "8 Mai",
		"stop_lat" : "47.18878689",
		"stop_lon" : "-1.55146834",
		"wheelchair_boarding" : "1",
		"route_id" : "97-0",
		"trip_headsign" : "Vertou",
		"route_type" : 3,
		"route_color" : "BEABD0",
		"route_text_color" : "FFFFFF"
	},
	{
		"stop_id" : "MAI84",
		"stop_name" : "8 Mai",
		"stop_lat" : "47.18907132",
		"stop_lon" : "-1.55166076",
		"wheelchair_boarding" : "1",
		"route_id" : "97-0",
		"trip_headsign" : "Trentemoult",
		"route_type" : 3,
		"route_color" : "BEABD0",
		"route_text_color" : "FFFFFF"
	},
	{
		"stop_id" : "ABCH1",
		"stop_name" : "Abbé Chérel",
		"stop_lat" : "47.21004362",
		"stop_lon" : "-1.65163899",
		"wheelchair_boarding" : "1",
		"route_id" : "81-0",
		"trip_headsign" : "Mendès France - Bellevue",
		"route_type" : 3,
		"route_color" : "00A4A7",
		"route_text_color" : "FFFFFF"
	},
	{
		"stop_id" : "ABCH2",
		"stop_name" : "Abbé Chérel",
		"stop_lat" : "47.21010645",
		"stop_lon" : "-1.65174942",
		"wheelchair_boarding" : "1",
		"route_id" : "81-0",
		"trip_headsign" : "Gare Maritime",
		"route_type" : 3,
		"route_color" : "00A4A7",
		"route_text_color" : "FFFFFF"
	},
	{
		"stop_id" : "ABDU1",
		"stop_name" : "Abel Durand",
		"stop_lat" : "47.22021763",
		"stop_lon" : "-1.60339294",
		"wheelchair_boarding" : "1",
		"route_id" : "C20-0",
		"trip_headsign" : "Gare Maritime",
		"route_type" : 3,
		"route_color" : "F8EA22",
		"route_text_color" : "000000"
	},
	{
		"stop_id" : "ABDU2",
		"stop_name" : "Abel Durand",
		"stop_lat" : "47.22005849",
		"stop_lon" : "-1.60325298",
		"wheelchair_boarding" : "1",
		"route_id" : "C20-0",
		"trip_headsign" : "Ecole Centrale - Audencia",
		"route_type" : 3,
		"route_color" : "F8EA22",
		"route_text_color" : "000000"
	},
	{
		"stop_id" : "ABDU2",
		"stop_name" : "Abel Durand",
		"stop_lat" : "47.22005849",
		"stop_lon" : "-1.60325298",
		"wheelchair_boarding" : "1",
		"route_id" : "NO-0",
		"trip_headsign" : "Hangar à Bananes",
		"route_type" : 3,
		"route_color" : "FFFA3E",
		"route_text_color" : "242D77"
	},
	{
		"stop_id" : "ABOL2",
		"stop_name" : "Adrienne Bolland",
		"stop_lat" : "47.26792095",
		"stop_lon" : "-1.47680712",
		"wheelchair_boarding" : "1",
		"route_id" : "77-0",
		"trip_headsign" : "Haluchère - Batignolles",
		"route_type" : 3,
		"route_color" : "B5DDF3",
		"route_text_color" : "000000"
	},
	{
		"stop_id" : "ABOL1",
		"stop_name" : "Adrienne Bolland",
		"stop_lat" : "47.26794667",
		"stop_lon" : "-1.47660122",
		"wheelchair_boarding" : "1",
		"route_id" : "77-0",
		"trip_headsign" : "Sables d'Or",
		"route_type" : 3,
		"route_color" : "B5DDF3",
		"route_text_color" : "000000"
	},
	{
		"stop_id" : "AECL1",
		"stop_name" : "Aéroclub",
		"stop_lat" : "47.15932625",
		"stop_lon" : "-1.59829534",
		"wheelchair_boarding" : "2",
		"route_id" : "98-0",
		"trip_headsign" : "St-Léger-les-Vignes \/ Brains",
		"route_type" : 3,
		"route_color" : "F8B323",
		"route_text_color" : "000000"
	},
	{
		"stop_id" : "AECL2",
		"stop_name" : "Aéroclub",
		"stop_lat" : "47.15938736",
		"stop_lon" : "-1.59803572",
		"wheelchair_boarding" : "2",
		"route_id" : "98-0",
		"trip_headsign" : "Neustrie",
		"route_type" : 3,
		"route_color" : "F8B323",
		"route_text_color" : "000000"
	},
	{
		"stop_id" : "AECL1",
		"stop_name" : "Aéroclub",
		"stop_lat" : "47.15932625",
		"stop_lon" : "-1.59829534",
		"wheelchair_boarding" : "2",
		"route_id" : "NA-0",
		"trip_headsign" : "Aéroport",
		"route_type" : 3,
		"route_color" : "34B4E4",
		"route_text_color" : "FFFFFF"
	},
	{
		"stop_id" : "AECL2",
		"stop_name" : "Aéroclub",
		"stop_lat" : "47.15938736",
		"stop_lon" : "-1.59803572",
		"wheelchair_boarding" : "2",
		"route_id" : "NA-0",
		"trip_headsign" : "Hôtel Dieu",
		"route_type" : 3,
		"route_color" : "34B4E4",
		"route_text_color" : "FFFFFF"
	},
	{
		"stop_id" : "NATL2",
		"stop_name" : "Aéroport",
		"stop_lat" : "47.15794554",
		"stop_lon" : "-1.60132215",
		"wheelchair_boarding" : "1",
		"route_id" : "38-0",
		"trip_headsign" : "Aéroport",
		"route_type" : 3,
		"route_color" : "009640",
		"route_text_color" : "FFFFFF"
	},
	{
		"stop_id" : "NATL2",
		"stop_name" : "Aéroport",
		"stop_lat" : "47.15794554",
		"stop_lon" : "-1.60132215",
		"wheelchair_boarding" : "1",
		"route_id" : "38-0",
		"trip_headsign" : "Greneraie",
		"route_type" : 3,
		"route_color" : "009640",
		"route_text_color" : "FFFFFF"
	},
	{
		"stop_id" : "NATL1",
		"stop_name" : "Aéroport",
		"stop_lat" : "47.15786084",
		"stop_lon" : "-1.60113897",
		"wheelchair_boarding" : "1",
		"route_id" : "NA-0",
		"trip_headsign" : "Hôtel Dieu",
		"route_type" : 3,
		"route_color" : "34B4E4",
		"route_text_color" : "FFFFFF"
	},
	{
		"stop_id" : "NATL1",
		"stop_name" : "Aéroport",
		"stop_lat" : "47.15786084",
		"stop_lon" : "-1.60113897",
		"wheelchair_boarding" : "1",
		"route_id" : "NA-0",
		"trip_headsign" : "Aéroport",
		"route_type" : 3,
		"route_color" : "34B4E4",
		"route_text_color" : "FFFFFF"
	},
	{
		"stop_id" : "AESP2",
		"stop_name" : "Aérospatiale",
		"stop_lat" : "47.16134225",
		"stop_lon" : "-1.58704692",
		"wheelchair_boarding" : "2",
		"route_id" : "38-0",
		"trip_headsign" : "Greneraie",
		"route_type" : 3,
		"route_color" : "009640",
		"route_text_color" : "FFFFFF"
	},
	{
		"stop_id" : "AESP1",
		"stop_name" : "Aérospatiale",
		"stop_lat" : "47.16079973",
		"stop_lon" : "-1.58795401",
		"wheelchair_boarding" : "2",
		"route_id" : "38-0",
		"trip_headsign" : "Aéroport",
		"route_type" : 3,
		"route_color" : "009640",
		"route_text_color" : "FFFFFF"
	},
	{
		"stop_id" : "AIGU1",
		"stop_name" : "Aiguillon",
		"stop_lat" : "47.25448411",
		"stop_lon" : "-1.49660446",
		"wheelchair_boarding" : "2",
		"route_id" : "127-0",
		"trip_headsign" : "Monteverdi",
		"route_type" : 3,
		"route_color" : "FFFFFF",
		"route_text_color" : "E53138"
	},
	{
		"stop_id" : "AIGU2",
		"stop_name" : "Aiguillon",
		"stop_lat" : "47.25445035",
		"stop_lon" : "-1.49691555",
		"wheelchair_boarding" : "2",
		"route_id" : "147-0",
		"trip_headsign" : "Toutes Aides",
		"route_type" : 3,
		"route_color" : "FFFFFF",
		"route_text_color" : "E53138"
	},
	{
		"stop_id" : "AIGU1",
		"stop_name" : "Aiguillon",
		"stop_lat" : "47.25448411",
		"stop_lon" : "-1.49660446",
		"wheelchair_boarding" : "2",
		"route_id" : "147-0",
		"trip_headsign" : "Bournière",
		"route_type" : 3,
		"route_color" : "FFFFFF",
		"route_text_color" : "E53138"
	},
	{
		"stop_id" : "AIGU2",
		"stop_name" : "Aiguillon",
		"stop_lat" : "47.25445035",
		"stop_lon" : "-1.49691555",
		"wheelchair_boarding" : "2",
		"route_id" : "157-0",
		"trip_headsign" : "Toutes Aides",
		"route_type" : 3,
		"route_color" : "FFFFFF",
		"route_text_color" : "E53138"
	},
	{
		"stop_id" : "AIGU2",
		"stop_name" : "Aiguillon",
		"stop_lat" : "47.25445035",
		"stop_lon" : "-1.49691555",
		"wheelchair_boarding" : "2",
		"route_id" : "80-0",
		"trip_headsign" : " Fac de Droit",
		"route_type" : 3,
		"route_color" : "FFED00",
		"route_text_color" : "000000"
	},
	{
		"stop_id" : "AIGU1",
		"stop_name" : "Aiguillon",
		"stop_lat" : "47.25448411",
		"stop_lon" : "-1.49660446",
		"wheelchair_boarding" : "2",
		"route_id" : "80-0",
		"trip_headsign" : "Chassay \/ Bellevue",
		"route_type" : 3,
		"route_color" : "FFED00",
		"route_text_color" : "000000"
	},
	{
		"stop_id" : "AIGU2",
		"stop_name" : "Aiguillon",
		"stop_lat" : "47.25445035",
		"stop_lon" : "-1.49691555",
		"wheelchair_boarding" : "2",
		"route_id" : "87-0",
		"trip_headsign" : "Toutes Aides",
		"route_type" : 3,
		"route_color" : "F8B323",
		"route_text_color" : "000000"
	},
	{
		"stop_id" : "AIGU1",
		"stop_name" : "Aiguillon",
		"stop_lat" : "47.25448411",
		"stop_lon" : "-1.49660446",
		"wheelchair_boarding" : "2",
		"route_id" : "87-0",
		"trip_headsign" : "Le Halleray",
		"route_type" : 3,
		"route_color" : "F8B323",
		"route_text_color" : "000000"
	},
	{
		"stop_id" : "ADEL1",
		"stop_name" : "Aimé Delrue",
		"stop_lat" : "47.20931181",
		"stop_lon" : "-1.55035994",
		"wheelchair_boarding" : "1",
		"route_id" : "2-0",
		"trip_headsign" : "Orvault Grand Val",
		"route_type" : 0,
		"route_color" : "E53138",
		"route_text_color" : "FFFFFF"
	},
	{
		"stop_id" : "ADEL2",
		"stop_name" : "Aimé Delrue",
		"stop_lat" : "47.20898690",
		"stop_lon" : "-1.55013941",
		"wheelchair_boarding" : "1",
		"route_id" : "2-0",
		"trip_headsign" : "Gare de Pont Rousseau",
		"route_type" : 0,
		"route_color" : "E53138",
		"route_text_color" : "FFFFFF"
	},
	{
		"stop_id" : "ADEL2",
		"stop_name" : "Aimé Delrue",
		"stop_lat" : "47.20898690",
		"stop_lon" : "-1.55013941",
		"wheelchair_boarding" : "1",
		"route_id" : "3-0",
		"trip_headsign" : "Neustrie",
		"route_type" : 0,
		"route_color" : "0079BC",
		"route_text_color" : "FFFFFF"
	},
	{
		"stop_id" : "ADEL1",
		"stop_name" : "Aimé Delrue",
		"stop_lat" : "47.20931181",
		"stop_lon" : "-1.55035994",
		"wheelchair_boarding" : "1",
		"route_id" : "3-0",
		"trip_headsign" : "Marcel Paul",
		"route_type" : 0,
		"route_color" : "0079BC",
		"route_text_color" : "FFFFFF"
	},
	{
		"stop_id" : "ADEL3",
		"stop_name" : "Aimé Delrue",
		"stop_lat" : "47.20917361",
		"stop_lon" : "-1.55005120",
		"wheelchair_boarding" : "2",
		"route_id" : "NC-0",
		"trip_headsign" : "Chantrerie Grandes Ecoles",
		"route_type" : 3,
		"route_color" : "FFFFFF",
		"route_text_color" : "242D77"
	},
	{
		"stop_id" : "AIBU3",
		"stop_name" : "Airbus",
		"stop_lat" : "47.15798334",
		"stop_lon" : "-1.59127862",
		"wheelchair_boarding" : "2",
		"route_id" : "38-0",
		"trip_headsign" : "Greneraie",
		"route_type" : 3,
		"route_color" : "009640",
		"route_text_color" : "FFFFFF"
	},
	{
		"stop_id" : "AIBU1",
		"stop_name" : "Airbus",
		"stop_lat" : "47.15868256",
		"stop_lon" : "-1.59121766",
		"wheelchair_boarding" : "2",
		"route_id" : "38-0",
		"trip_headsign" : "Aéroport",
		"route_type" : 3,
		"route_color" : "009640",
		"route_text_color" : "FFFFFF"
	},
	{
		"stop_id" : "STHR1",
		"stop_name" : "Alexandre Vincent - Ste-Thérèse",
		"stop_lat" : "47.23292677",
		"stop_lon" : "-1.57768281",
		"wheelchair_boarding" : "1",
		"route_id" : "3-0",
		"trip_headsign" : "Marcel Paul",
		"route_type" : 0,
		"route_color" : "0079BC",
		"route_text_color" : "FFFFFF"
	},
	{
		"stop_id" : "STHR2",
		"stop_name" : "Alexandre Vincent - Ste-Thérèse",
		"stop_lat" : "47.23268964",
		"stop_lon" : "-1.57731900",
		"wheelchair_boarding" : "1",
		"route_id" : "3-0",
		"trip_headsign" : "Neustrie",
		"route_type" : 0,
		"route_color" : "0079BC",
		"route_text_color" : "FFFFFF"
	},
	{
		"stop_id" : "STH58",
		"stop_name" : "Alexandre Vincent - Ste-Thérèse",
		"stop_lat" : "47.23274913",
		"stop_lon" : "-1.57747675",
		"wheelchair_boarding" : "2",
		"route_id" : "3B-0",
		"trip_headsign" : "Neustrie",
		"route_type" : 3,
		"route_color" : "0079BC",
		"route_text_color" : "FFFFFF"
	},
	{
		"stop_id" : "STH58",
		"stop_name" : "Alexandre Vincent - Ste-Thérèse",
		"stop_lat" : "47.23274913",
		"stop_lon" : "-1.57747675",
		"wheelchair_boarding" : "2",
		"route_id" : "3B-0",
		"trip_headsign" : "Marcel Paul",
		"route_type" : 3,
		"route_color" : "0079BC",
		"route_text_color" : "FFFFFF"
	},
	{
		"stop_id" : "ALDE3",
		"stop_name" : "Allende",
		"stop_lat" : "47.17487613",
		"stop_lon" : "-1.62461491",
		"wheelchair_boarding" : "1",
		"route_id" : "36-0",
		"trip_headsign" : "Croix Jeannette",
		"route_type" : 3,
		"route_color" : "00A4A7",
		"route_text_color" : "FFFFFF"
	},
	{
		"stop_id" : "ALDE1",
		"stop_name" : "Allende",
		"stop_lat" : "47.17543375",
		"stop_lon" : "-1.62390587",
		"wheelchair_boarding" : "1",
		"route_id" : "36-0",
		"trip_headsign" : "Greneraie",
		"route_type" : 3,
		"route_color" : "00A4A7",
		"route_text_color" : "FFFFFF"
	},
	{
		"stop_id" : "ALDE1",
		"stop_name" : "Allende",
		"stop_lat" : "47.17543375",
		"stop_lon" : "-1.62390587",
		"wheelchair_boarding" : "1",
		"route_id" : "78-0",
		"trip_headsign" : "Bac du Pellerin",
		"route_type" : 3,
		"route_color" : "F8B323",
		"route_text_color" : "000000"
	},
	{
		"stop_id" : "ALDE2",
		"stop_name" : "Allende",
		"stop_lat" : "47.17527311",
		"stop_lon" : "-1.62312916",
		"wheelchair_boarding" : "1",
		"route_id" : "78-0",
		"trip_headsign" : "Neustrie",
		"route_type" : 3,
		"route_color" : "F8B323",
		"route_text_color" : "000000"
	},
	{
		"stop_id" : "ALDE2",
		"stop_name" : "Allende",
		"stop_lat" : "47.17527311",
		"stop_lon" : "-1.62312916",
		"wheelchair_boarding" : "1",
		"route_id" : "88-0",
		"trip_headsign" : "Neustrie",
		"route_type" : 3,
		"route_color" : "BEABD0",
		"route_text_color" : "FFFFFF"
	},
	{
		"stop_id" : "ALDE4",
		"stop_name" : "Allende",
		"stop_lat" : "47.17415264",
		"stop_lon" : "-1.62378337",
		"wheelchair_boarding" : "2",
		"route_id" : "88-0",
		"trip_headsign" : "Château d'Aux",
		"route_type" : 3,
		"route_color" : "BEABD0",
		"route_text_color" : "FFFFFF"
	},
	{
		"stop_id" : "ALDE2",
		"stop_name" : "Allende",
		"stop_lat" : "47.17527311",
		"stop_lon" : "-1.62312916",
		"wheelchair_boarding" : "1",
		"route_id" : "E8-0",
		"trip_headsign" : "Greneraie",
		"route_type" : 3,
		"route_color" : "E53138",
		"route_text_color" : "FFFFFF"
	},
	{
		"stop_id" : "ALDE3",
		"stop_name" : "Allende",
		"stop_lat" : "47.17487613",
		"stop_lon" : "-1.62461491",
		"wheelchair_boarding" : "1",
		"route_id" : "E8-0",
		"trip_headsign" : "La Cochère",
		"route_type" : 3,
		"route_color" : "E53138",
		"route_text_color" : "FFFFFF"
	},
	{
		"stop_id" : "APRE2",
		"stop_name" : "Ambroise Paré",
		"stop_lat" : "47.22908815",
		"stop_lon" : "-1.60856584",
		"wheelchair_boarding" : "1",
		"route_id" : "111-0",
		"trip_headsign" : "ADAPEI à Tillay",
		"route_type" : 3,
		"route_color" : "FFFFFF",
		"route_text_color" : "E53138"
	},
	{
		"stop_id" : "APRE2",
		"stop_name" : "Ambroise Paré",
		"stop_lat" : "47.22908815",
		"stop_lon" : "-1.60856584",
		"wheelchair_boarding" : "1",
		"route_id" : "111-0",
		"trip_headsign" : "Lycée Appert",
		"route_type" : 3,
		"route_color" : "FFFFFF",
		"route_text_color" : "E53138"
	},
	{
		"stop_id" : "APRE2",
		"stop_name" : "Ambroise Paré",
		"stop_lat" : "47.22908815",
		"stop_lon" : "-1.60856584",
		"wheelchair_boarding" : "1",
		"route_id" : "59-0",
		"trip_headsign" : "Bout des Landes",
		"route_type" : 3,
		"route_color" : "F5BAC6",
		"route_text_color" : "000000"
	},
	{
		"stop_id" : "APRE1",
		"stop_name" : "Ambroise Paré",
		"stop_lat" : "47.22889740",
		"stop_lon" : "-1.60863904",
		"wheelchair_boarding" : "1",
		"route_id" : "59-0",
		"trip_headsign" : "Mendès France - Bellevue",
		"route_type" : 3,
		"route_color" : "F5BAC6",
		"route_text_color" : "000000"
	},
	{
		"stop_id" : "APRE2",
		"stop_name" : "Ambroise Paré",
		"stop_lat" : "47.22908815",
		"stop_lon" : "-1.60856584",
		"wheelchair_boarding" : "1",
		"route_id" : "C6-0",
		"trip_headsign" : "Hermeland",
		"route_type" : 3,
		"route_color" : "BEABD0",
		"route_text_color" : "FFFFFF"
	},
	{
		"stop_id" : "APRE1",
		"stop_name" : "Ambroise Paré",
		"stop_lat" : "47.22889740",
		"stop_lon" : "-1.60863904",
		"wheelchair_boarding" : "1",
		"route_id" : "C6-0",
		"trip_headsign" : "Chantrerie Grandes Ecoles",
		"route_type" : 3,
		"route_color" : "BEABD0",
		"route_text_color" : "FFFFFF"
	},
	{
		"stop_id" : "AMER1",
		"stop_name" : "Américains",
		"stop_lat" : "47.23607974",
		"stop_lon" : "-1.56826271",
		"wheelchair_boarding" : "1",
		"route_id" : "12-0",
		"trip_headsign" : "Jules Verne",
		"route_type" : 3,
		"route_color" : "B5DDF3",
		"route_text_color" : "000000"
	},
	{
		"stop_id" : "AMER2",
		"stop_name" : "Américains",
		"stop_lat" : "47.23579689",
		"stop_lon" : "-1.56789162",
		"wheelchair_boarding" : "1",
		"route_id" : "12-0",
		"trip_headsign" : "Beauséjour",
		"route_type" : 3,
		"route_color" : "B5DDF3",
		"route_text_color" : "000000"
	},
	{
		"stop_id" : "AMER2",
		"stop_name" : "Américains",
		"stop_lat" : "47.23579689",
		"stop_lon" : "-1.56789162",
		"wheelchair_boarding" : "1",
		"route_id" : "C2-0",
		"trip_headsign" : "Le Cardo",
		"route_type" : 3,
		"route_color" : "ED7703",
		"route_text_color" : "FFFFFF"
	},
	{
		"stop_id" : "AMER1",
		"stop_name" : "Américains",
		"stop_lat" : "47.23607974",
		"stop_lon" : "-1.56826271",
		"wheelchair_boarding" : "1",
		"route_id" : "C2-0",
		"trip_headsign" : "Gare Sud",
		"route_type" : 3,
		"route_color" : "ED7703",
		"route_text_color" : "FFFFFF"
	},
	{
		"stop_id" : "AMER1",
		"stop_name" : "Américains",
		"stop_lat" : "47.23607974",
		"stop_lon" : "-1.56826271",
		"wheelchair_boarding" : "1",
		"route_id" : "NO-0",
		"trip_headsign" : "Hangar à Bananes",
		"route_type" : 3,
		"route_color" : "FFFA3E",
		"route_text_color" : "242D77"
	},
	{
		"stop_id" : "AMPE2",
		"stop_name" : "Ampère",
		"stop_lat" : "47.26076026",
		"stop_lon" : "-1.55348181",
		"wheelchair_boarding" : "1",
		"route_id" : "66-0",
		"trip_headsign" : "Ecole Centrale-Audencia",
		"route_type" : 3,
		"route_color" : "2C4393",
		"route_text_color" : "FFFFFF"
	},
	{
		"stop_id" : "AMPE1",
		"stop_name" : "Ampère",
		"stop_lat" : "47.26072504",
		"stop_lon" : "-1.55319084",
		"wheelchair_boarding" : "1",
		"route_id" : "66-0",
		"trip_headsign" : "Babinière",
		"route_type" : 3,
		"route_color" : "2C4393",
		"route_text_color" : "FFFFFF"
	},
	{
		"stop_id" : "APER1",
		"stop_name" : "Ampère",
		"stop_lat" : "47.30219818",
		"stop_lon" : "-1.50783344",
		"wheelchair_boarding" : "1",
		"route_id" : "85-0",
		"trip_headsign" : "Souchais",
		"route_type" : 3,
		"route_color" : "F5BAC6",
		"route_text_color" : "000000"
	},
	{
		"stop_id" : "APER2",
		"stop_name" : "Ampère",
		"stop_lat" : "47.30204210",
		"stop_lon" : "-1.50792283",
		"wheelchair_boarding" : "1",
		"route_id" : "85-0",
		"trip_headsign" : "Haluchère - Batignolles",
		"route_type" : 3,
		"route_color" : "F5BAC6",
		"route_text_color" : "000000"
	},
	{
		"stop_id" : "AMPE2",
		"stop_name" : "Ampère",
		"stop_lat" : "47.26076026",
		"stop_lon" : "-1.55348181",
		"wheelchair_boarding" : "1",
		"route_id" : "86-0",
		"trip_headsign" : "Bout des Pavés",
		"route_type" : 3,
		"route_color" : "34B4E4",
		"route_text_color" : "FFFFFF"
	},
	{
		"stop_id" : "AMPE1",
		"stop_name" : "Ampère",
		"stop_lat" : "47.26072504",
		"stop_lon" : "-1.55319084",
		"wheelchair_boarding" : "1",
		"route_id" : "86-0",
		"trip_headsign" : "La Chapelle Aulnay",
		"route_type" : 3,
		"route_color" : "34B4E4",
		"route_text_color" : "FFFFFF"
	},
	{
		"stop_id" : "AMPE2",
		"stop_name" : "Ampère",
		"stop_lat" : "47.26076026",
		"stop_lon" : "-1.55348181",
		"wheelchair_boarding" : "1",
		"route_id" : "E5-0",
		"trip_headsign" : "Fac de Droit",
		"route_type" : 3,
		"route_color" : "E53138",
		"route_text_color" : "FFFFFF"
	},
	{
		"stop_id" : "AMPE1",
		"stop_name" : "Ampère",
		"stop_lat" : "47.26072504",
		"stop_lon" : "-1.55319084",
		"wheelchair_boarding" : "1",
		"route_id" : "E5-0",
		"trip_headsign" : "Carquefou",
		"route_type" : 3,
		"route_color" : "E53138",
		"route_text_color" : "FFFFFF"
	},
	{
		"stop_id" : "AFRA2",
		"stop_name" : "Anatole France",
		"stop_lat" : "47.22367057",
		"stop_lon" : "-1.57162985",
		"wheelchair_boarding" : "2",
		"route_id" : "26-0",
		"trip_headsign" : "Hôtel de Région",
		"route_type" : 3,
		"route_color" : "009534",
		"route_text_color" : "FFFFFF"
	},
	{
		"stop_id" : "AFRA1",
		"stop_name" : "Anatole France",
		"stop_lat" : "47.22445344",
		"stop_lon" : "-1.57114631",
		"wheelchair_boarding" : "1",
		"route_id" : "26-0",
		"trip_headsign" : "Jonelière",
		"route_type" : 3,
		"route_color" : "009534",
		"route_text_color" : "FFFFFF"
	},
	{
		"stop_id" : "AFRA2",
		"stop_name" : "Anatole France",
		"stop_lat" : "47.22367057",
		"stop_lon" : "-1.57162985",
		"wheelchair_boarding" : "2",
		"route_id" : "54-0",
		"trip_headsign" : "Saupin",
		"route_type" : 3,
		"route_color" : "CBD300",
		"route_text_color" : "000000"
	},
	{
		"stop_id" : "AFRA3",
		"stop_name" : "Anatole France",
		"stop_lat" : "47.22395398",
		"stop_lon" : "-1.57217014",
		"wheelchair_boarding" : "1",
		"route_id" : "54-0",
		"trip_headsign" : "Marcel Paul",
		"route_type" : 3,
		"route_color" : "CBD300",
		"route_text_color" : "000000"
	},
	{
		"stop_id" : "AGDR2",
		"stop_name" : "Angebardière",
		"stop_lat" : "47.16953517",
		"stop_lon" : "-1.50541958",
		"wheelchair_boarding" : "1",
		"route_id" : "47-0",
		"trip_headsign" : "Vertou",
		"route_type" : 3,
		"route_color" : "BEABD0",
		"route_text_color" : "FFFFFF"
	},
	{
		"stop_id" : "AGDR1",
		"stop_name" : "Angebardière",
		"stop_lat" : "47.16942145",
		"stop_lon" : "-1.50521068",
		"wheelchair_boarding" : "1",
		"route_id" : "47-0",
		"trip_headsign" : "Pégers \/ Grande Noëlle",
		"route_type" : 3,
		"route_color" : "BEABD0",
		"route_text_color" : "FFFFFF"
	},
	{
		"stop_id" : "AGDR2",
		"stop_name" : "Angebardière",
		"stop_lat" : "47.16953517",
		"stop_lon" : "-1.50541958",
		"wheelchair_boarding" : "1",
		"route_id" : "97-0",
		"trip_headsign" : "Trentemoult",
		"route_type" : 3,
		"route_color" : "BEABD0",
		"route_text_color" : "FFFFFF"
	},
	{
		"stop_id" : "AGDR1",
		"stop_name" : "Angebardière",
		"stop_lat" : "47.16942145",
		"stop_lon" : "-1.50521068",
		"wheelchair_boarding" : "1",
		"route_id" : "97-0",
		"trip_headsign" : "Vertou",
		"route_type" : 3,
		"route_color" : "BEABD0",
		"route_text_color" : "FFFFFF"
	},
	{
		"stop_id" : "AGV98",
		"stop_name" : "Angevinière",
		"stop_lat" : "47.24597226",
		"stop_lon" : "-1.61104700",
		"wheelchair_boarding" : "1",
		"route_id" : "119-0",
		"trip_headsign" : "Mairie d'Orvault",
		"route_type" : 3,
		"route_color" : "FFFFFF",
		"route_text_color" : "E53138"
	},
	{
		"stop_id" : "AGV98",
		"stop_name" : "Angevinière",
		"stop_lat" : "47.24597226",
		"stop_lon" : "-1.61104700",
		"wheelchair_boarding" : "1",
		"route_id" : "129-0",
		"trip_headsign" : "Les Anges",
		"route_type" : 3,
		"route_color" : "FFFFFF",
		"route_text_color" : "E53138"
	},
	{
		"stop_id" : "AGV98",
		"stop_name" : "Angevinière",
		"stop_lat" : "47.24597226",
		"stop_lon" : "-1.61104700",
		"wheelchair_boarding" : "1",
		"route_id" : "139-0",
		"trip_headsign" : "Angevinière",
		"route_type" : 3,
		"route_color" : "FFFFFF",
		"route_text_color" : "E53138"
	},
	{
		"stop_id" : "AGV98",
		"stop_name" : "Angevinière",
		"stop_lat" : "47.24597226",
		"stop_lon" : "-1.61104700",
		"wheelchair_boarding" : "1",
		"route_id" : "159-0",
		"trip_headsign" : "Angevinière",
		"route_type" : 3,
		"route_color" : "FFFFFF",
		"route_text_color" : "E53138"
	},
	{
		"stop_id" : "AGV98",
		"stop_name" : "Angevinière",
		"stop_lat" : "47.24597226",
		"stop_lon" : "-1.61104700",
		"wheelchair_boarding" : "1",
		"route_id" : "159-0",
		"trip_headsign" : "Sautron",
		"route_type" : 3,
		"route_color" : "FFFFFF",
		"route_text_color" : "E53138"
	},
	{
		"stop_id" : "AGV98",
		"stop_name" : "Angevinière",
		"stop_lat" : "47.24597226",
		"stop_lon" : "-1.61104700",
		"wheelchair_boarding" : "1",
		"route_id" : "189-0",
		"trip_headsign" : "Angevinière",
		"route_type" : 3,
		"route_color" : "FFFFFF",
		"route_text_color" : "E53138"
	},
	{
		"stop_id" : "AGVI2",
		"stop_name" : "Angevinière",
		"stop_lat" : "47.24503879",
		"stop_lon" : "-1.61150450",
		"wheelchair_boarding" : "1",
		"route_id" : "50-0",
		"trip_headsign" : "Porte de La Chapelle",
		"route_type" : 3,
		"route_color" : "FFED00",
		"route_text_color" : "000000"
	},
	{
		"stop_id" : "AGVI1",
		"stop_name" : "Angevinière",
		"stop_lat" : "47.24515933",
		"stop_lon" : "-1.61237710",
		"wheelchair_boarding" : "1",
		"route_id" : "50-0",
		"trip_headsign" : "Basse Indre",
		"route_type" : 3,
		"route_color" : "FFED00",
		"route_text_color" : "000000"
	},
	{
		"stop_id" : "AGVI2",
		"stop_name" : "Angevinière",
		"stop_lat" : "47.24503879",
		"stop_lon" : "-1.61150450",
		"wheelchair_boarding" : "1",
		"route_id" : "54-0",
		"trip_headsign" : "Saupin",
		"route_type" : 3,
		"route_color" : "CBD300",
		"route_text_color" : "000000"
	},
	{
		"stop_id" : "AGVI1",
		"stop_name" : "Angevinière",
		"stop_lat" : "47.24515933",
		"stop_lon" : "-1.61237710",
		"wheelchair_boarding" : "1",
		"route_id" : "54-0",
		"trip_headsign" : "Marcel Paul",
		"route_type" : 3,
		"route_color" : "CBD300",
		"route_text_color" : "000000"
	},
	{
		"stop_id" : "ACHA2",
		"stop_name" : "Angle Chaillou",
		"stop_lat" : "47.26981000",
		"stop_lon" : "-1.57210725",
		"wheelchair_boarding" : "2",
		"route_id" : "96-0",
		"trip_headsign" : "Bout des Pavés",
		"route_type" : 3,
		"route_color" : "F8B323",
		"route_text_color" : "000000"
	},
	{
		"stop_id" : "ACHA1",
		"stop_name" : "Angle Chaillou",
		"stop_lat" : "47.26971087",
		"stop_lon" : "-1.57189622",
		"wheelchair_boarding" : "2",
		"route_id" : "96-0",
		"trip_headsign" : "Coutancière",
		"route_type" : 3,
		"route_color" : "F8B323",
		"route_text_color" : "000000"
	},
	{
		"stop_id" : "ATAR2",
		"stop_name" : "Antarès",
		"stop_lat" : "47.28170935",
		"stop_lon" : "-1.45976056",
		"wheelchair_boarding" : "2",
		"route_id" : "77-0",
		"trip_headsign" : "Haluchère - Batignolles",
		"route_type" : 3,
		"route_color" : "B5DDF3",
		"route_text_color" : "000000"
	},
	{
		"stop_id" : "ATAR1",
		"stop_name" : "Antarès",
		"stop_lat" : "47.28166503",
		"stop_lon" : "-1.45965683",
		"wheelchair_boarding" : "2",
		"route_id" : "77-0",
		"trip_headsign" : "Sables d'Or",
		"route_type" : 3,
		"route_color" : "B5DDF3",
		"route_text_color" : "000000"
	},
	{
		"stop_id" : "ANTO1",
		"stop_name" : "Antons",
		"stop_lat" : "47.25765319",
		"stop_lon" : "-1.62261111",
		"wheelchair_boarding" : "1",
		"route_id" : "119-0",
		"trip_headsign" : "Mairie d'Orvault",
		"route_type" : 3,
		"route_color" : "FFFFFF",
		"route_text_color" : "E53138"
	},
	{
		"stop_id" : "ANTO1",
		"stop_name" : "Antons",
		"stop_lat" : "47.25765319",
		"stop_lon" : "-1.62261111",
		"wheelchair_boarding" : "1",
		"route_id" : "129-0",
		"trip_headsign" : "Les Anges",
		"route_type" : 3,
		"route_color" : "FFFFFF",
		"route_text_color" : "E53138"
	},
	{
		"stop_id" : "ANTO2",
		"stop_name" : "Antons",
		"stop_lat" : "47.25783878",
		"stop_lon" : "-1.62331809",
		"wheelchair_boarding" : "1",
		"route_id" : "139-0",
		"trip_headsign" : "Angevinière",
		"route_type" : 3,
		"route_color" : "FFFFFF",
		"route_text_color" : "E53138"
	},
	{
		"stop_id" : "ANTO2",
		"stop_name" : "Antons",
		"stop_lat" : "47.25783878",
		"stop_lon" : "-1.62331809",
		"wheelchair_boarding" : "1",
		"route_id" : "189-0",
		"trip_headsign" : "Angevinière",
		"route_type" : 3,
		"route_color" : "FFFFFF",
		"route_text_color" : "E53138"
	},
	{
		"stop_id" : "ANTO1",
		"stop_name" : "Antons",
		"stop_lat" : "47.25765319",
		"stop_lon" : "-1.62261111",
		"wheelchair_boarding" : "1",
		"route_id" : "89-0",
		"trip_headsign" : "Le Cardo",
		"route_type" : 3,
		"route_color" : "77AD1C",
		"route_text_color" : "FFFFFF"
	},
	{
		"stop_id" : "ANTO2",
		"stop_name" : "Antons",
		"stop_lat" : "47.25783878",
		"stop_lon" : "-1.62331809",
		"wheelchair_boarding" : "1",
		"route_id" : "89-0",
		"trip_headsign" : "Beauséjour",
		"route_type" : 3,
		"route_color" : "77AD1C",
		"route_text_color" : "FFFFFF"
	},
	{
		"stop_id" : "APAV1",
		"stop_name" : "Apave",
		"stop_lat" : "47.22570240",
		"stop_lon" : "-1.64766184",
		"wheelchair_boarding" : "1",
		"route_id" : "93-0",
		"trip_headsign" : "Hauts de Couëron",
		"route_type" : 3,
		"route_color" : "00A4A7",
		"route_text_color" : "FFFFFF"
	},
	{
		"stop_id" : "APAV2",
		"stop_name" : "Apave",
		"stop_lat" : "47.22537146",
		"stop_lon" : "-1.64749042",
		"wheelchair_boarding" : "1",
		"route_id" : "93-0",
		"trip_headsign" : "Hôpital Laënnec",
		"route_type" : 3,
		"route_color" : "00A4A7",
		"route_text_color" : "FFFFFF"
	},
	{
		"stop_id" : "AQUI1",
		"stop_name" : "Aquitaine",
		"stop_lat" : "47.20988552",
		"stop_lon" : "-1.61497360",
		"wheelchair_boarding" : "1",
		"route_id" : "23-0",
		"trip_headsign" : "Haluchère Batignolles",
		"route_type" : 3,
		"route_color" : "34B4E4",
		"route_text_color" : "FFFFFF"
	},
	{
		"stop_id" : "AQUI2",
		"stop_name" : "Aquitaine",
		"stop_lat" : "47.20975523",
		"stop_lon" : "-1.61483312",
		"wheelchair_boarding" : "1",
		"route_id" : "23-0",
		"trip_headsign" : "Mendès France - Bellevue",
		"route_type" : 3,
		"route_color" : "34B4E4",
		"route_text_color" : "FFFFFF"
	},
	{
		"stop_id" : "AQUI1",
		"stop_name" : "Aquitaine",
		"stop_lat" : "47.20988552",
		"stop_lon" : "-1.61497360",
		"wheelchair_boarding" : "1",
		"route_id" : "59-0",
		"trip_headsign" : "Bout des Landes",
		"route_type" : 3,
		"route_color" : "F5BAC6",
		"route_text_color" : "000000"
	},
	{
		"stop_id" : "AQUI2",
		"stop_name" : "Aquitaine",
		"stop_lat" : "47.20975523",
		"stop_lon" : "-1.61483312",
		"wheelchair_boarding" : "1",
		"route_id" : "59-0",
		"trip_headsign" : "Mendès France - Bellevue",
		"route_type" : 3,
		"route_color" : "F5BAC6",
		"route_text_color" : "000000"
	},
	{
		"stop_id" : "AQUI2",
		"stop_name" : "Aquitaine",
		"stop_lat" : "47.20975523",
		"stop_lon" : "-1.61483312",
		"wheelchair_boarding" : "1",
		"route_id" : "81-0",
		"trip_headsign" : "Mendès France - Bellevue",
		"route_type" : 3,
		"route_color" : "00A4A7",
		"route_text_color" : "FFFFFF"
	},
	{
		"stop_id" : "AQUI1",
		"stop_name" : "Aquitaine",
		"stop_lat" : "47.20988552",
		"stop_lon" : "-1.61497360",
		"wheelchair_boarding" : "1",
		"route_id" : "81-0",
		"trip_headsign" : "Gare Maritime",
		"route_type" : 3,
		"route_color" : "00A4A7",
		"route_text_color" : "FFFFFF"
	},
	{
		"stop_id" : "AQUI2",
		"stop_name" : "Aquitaine",
		"stop_lat" : "47.20975523",
		"stop_lon" : "-1.61483312",
		"wheelchair_boarding" : "1",
		"route_id" : "91-0",
		"trip_headsign" : "Mendès France - Bellevue",
		"route_type" : 3,
		"route_color" : "009534",
		"route_text_color" : "FFFFFF"
	},
	{
		"stop_id" : "AQUI1",
		"stop_name" : "Aquitaine",
		"stop_lat" : "47.20988552",
		"stop_lon" : "-1.61497360",
		"wheelchair_boarding" : "1",
		"route_id" : "91-0",
		"trip_headsign" : "Couëron-Bougon",
		"route_type" : 3,
		"route_color" : "009534",
		"route_text_color" : "FFFFFF"
	},
	{
		"stop_id" : "ARAG1",
		"stop_name" : "Arago",
		"stop_lat" : "47.30350530",
		"stop_lon" : "-1.50484787",
		"wheelchair_boarding" : "1",
		"route_id" : "85-0",
		"trip_headsign" : "Souchais",
		"route_type" : 3,
		"route_color" : "F5BAC6",
		"route_text_color" : "000000"
	},
	{
		"stop_id" : "ARAG2",
		"stop_name" : "Arago",
		"stop_lat" : "47.30358086",
		"stop_lon" : "-1.50498571",
		"wheelchair_boarding" : "1",
		"route_id" : "85-0",
		"trip_headsign" : "Haluchère - Batignolles",
		"route_type" : 3,
		"route_color" : "F5BAC6",
		"route_text_color" : "000000"
	},
	{
		"stop_id" : "ARBO2",
		"stop_name" : "Arbois",
		"stop_lat" : "47.25838461",
		"stop_lon" : "-1.58210153",
		"wheelchair_boarding" : "2",
		"route_id" : "109-0",
		"trip_headsign" : "Couchant",
		"route_type" : 3,
		"route_color" : "FFFFFF",
		"route_text_color" : "E53138"
	},
	{
		"stop_id" : "ARBO1",
		"stop_name" : "Arbois",
		"stop_lat" : "47.25867271",
		"stop_lon" : "-1.58176016",
		"wheelchair_boarding" : "2",
		"route_id" : "109-0",
		"trip_headsign" : "Ferrière",
		"route_type" : 3,
		"route_color" : "FFFFFF",
		"route_text_color" : "E53138"
	},
	{
		"stop_id" : "ARBO2",
		"stop_name" : "Arbois",
		"stop_lat" : "47.25838461",
		"stop_lon" : "-1.58210153",
		"wheelchair_boarding" : "2",
		"route_id" : "59-0",
		"trip_headsign" : "Bout des Landes",
		"route_type" : 3,
		"route_color" : "F5BAC6",
		"route_text_color" : "000000"
	},
	{
		"stop_id" : "ARBO1",
		"stop_name" : "Arbois",
		"stop_lat" : "47.25867271",
		"stop_lon" : "-1.58176016",
		"wheelchair_boarding" : "2",
		"route_id" : "59-0",
		"trip_headsign" : "Mendès France - Bellevue",
		"route_type" : 3,
		"route_color" : "F5BAC6",
		"route_text_color" : "000000"
	},
	{
		"stop_id" : "ARCA1",
		"stop_name" : "Arcades",
		"stop_lat" : "47.21182995",
		"stop_lon" : "-1.65277809",
		"wheelchair_boarding" : "1",
		"route_id" : "50-0",
		"trip_headsign" : "Porte de La Chapelle",
		"route_type" : 3,
		"route_color" : "FFED00",
		"route_text_color" : "000000"
	},
	{
		"stop_id" : "ARCA2",
		"stop_name" : "Arcades",
		"stop_lat" : "47.21202199",
		"stop_lon" : "-1.65360536",
		"wheelchair_boarding" : "1",
		"route_id" : "50-0",
		"trip_headsign" : "Basse Indre",
		"route_type" : 3,
		"route_color" : "FFED00",
		"route_text_color" : "000000"
	},
	{
		"stop_id" : "ARCA2",
		"stop_name" : "Arcades",
		"stop_lat" : "47.21202199",
		"stop_lon" : "-1.65360536",
		"wheelchair_boarding" : "1",
		"route_id" : "91-0",
		"trip_headsign" : "Couëron-Bougon",
		"route_type" : 3,
		"route_color" : "009534",
		"route_text_color" : "FFFFFF"
	},
	{
		"stop_id" : "ARCA1",
		"stop_name" : "Arcades",
		"stop_lat" : "47.21182995",
		"stop_lon" : "-1.65277809",
		"wheelchair_boarding" : "1",
		"route_id" : "91-0",
		"trip_headsign" : "Mendès France - Bellevue",
		"route_type" : 3,
		"route_color" : "009534",
		"route_text_color" : "FFFFFF"
	},
	{
		"stop_id" : "ARGO1",
		"stop_name" : "Argonautes",
		"stop_lat" : "47.30241995",
		"stop_lon" : "-1.48191405",
		"wheelchair_boarding" : "1",
		"route_id" : "95-0",
		"trip_headsign" : "Bois St-Lys",
		"route_type" : 3,
		"route_color" : "CBD300",
		"route_text_color" : "000000"
	},
	{
		"stop_id" : "ARGO2",
		"stop_name" : "Argonautes",
		"stop_lat" : "47.30240342",
		"stop_lon" : "-1.48181490",
		"wheelchair_boarding" : "1",
		"route_id" : "95-0",
		"trip_headsign" : "Haluchère - Batignolles",
		"route_type" : 3,
		"route_color" : "CBD300",
		"route_text_color" : "000000"
	},
	{
		"stop_id" : "BIAN2",
		"stop_name" : "Aristide Briand",
		"stop_lat" : "47.29635147",
		"stop_lon" : "-1.49515533",
		"wheelchair_boarding" : "1",
		"route_id" : "75-0",
		"trip_headsign" : "Charbonneau",
		"route_type" : 3,
		"route_color" : "E9C389",
		"route_text_color" : "000000"
	},
	{
		"stop_id" : "BIAN1",
		"stop_name" : "Aristide Briand",
		"stop_lat" : "47.29642182",
		"stop_lon" : "-1.49498960",
		"wheelchair_boarding" : "1",
		"route_id" : "75-0",
		"trip_headsign" : "Facultés",
		"route_type" : 3,
		"route_color" : "E9C389",
		"route_text_color" : "000000"
	},
	{
		"stop_id" : "BIAN2",
		"stop_name" : "Aristide Briand",
		"stop_lat" : "47.29635147",
		"stop_lon" : "-1.49515533",
		"wheelchair_boarding" : "1",
		"route_id" : "85-0",
		"trip_headsign" : "Haluchère - Batignolles",
		"route_type" : 3,
		"route_color" : "F5BAC6",
		"route_text_color" : "000000"
	},
	{
		"stop_id" : "BIAN1",
		"stop_name" : "Aristide Briand",
		"stop_lat" : "47.29642182",
		"stop_lon" : "-1.49498960",
		"wheelchair_boarding" : "1",
		"route_id" : "85-0",
		"trip_headsign" : "Souchais",
		"route_type" : 3,
		"route_color" : "F5BAC6",
		"route_text_color" : "000000"
	},
	{
		"stop_id" : "AROR3",
		"stop_name" : "Armor",
		"stop_lat" : "47.23104050",
		"stop_lon" : "-1.63182524",
		"wheelchair_boarding" : "1",
		"route_id" : "50-0",
		"trip_headsign" : "Porte de La Chapelle",
		"route_type" : 3,
		"route_color" : "FFED00",
		"route_text_color" : "000000"
	},
	{
		"stop_id" : "AROR4",
		"stop_name" : "Armor",
		"stop_lat" : "47.23102998",
		"stop_lon" : "-1.63207834",
		"wheelchair_boarding" : "1",
		"route_id" : "50-0",
		"trip_headsign" : "Basse Indre",
		"route_type" : 3,
		"route_color" : "FFED00",
		"route_text_color" : "000000"
	},
	{
		"stop_id" : "ARO93",
		"stop_name" : "Armor",
		"stop_lat" : "47.23103865",
		"stop_lon" : "-1.63182642",
		"wheelchair_boarding" : "1",
		"route_id" : "93-0",
		"trip_headsign" : "Hauts de Couëron",
		"route_type" : 3,
		"route_color" : "00A4A7",
		"route_text_color" : "FFFFFF"
	},
	{
		"stop_id" : "AROR3",
		"stop_name" : "Armor",
		"stop_lat" : "47.23104050",
		"stop_lon" : "-1.63182524",
		"wheelchair_boarding" : "1",
		"route_id" : "93-0",
		"trip_headsign" : "Hôpital Laënnec",
		"route_type" : 3,
		"route_color" : "00A4A7",
		"route_text_color" : "FFFFFF"
	},
	{
		"stop_id" : "AROR1",
		"stop_name" : "Armor",
		"stop_lat" : "47.23102229",
		"stop_lon" : "-1.63125529",
		"wheelchair_boarding" : "1",
		"route_id" : "C3-0",
		"trip_headsign" : "Bd de Doulon",
		"route_type" : 3,
		"route_color" : "F8B323",
		"route_text_color" : "000000"
	},
	{
		"stop_id" : "AROR2",
		"stop_name" : "Armor",
		"stop_lat" : "47.23118208",
		"stop_lon" : "-1.63134913",
		"wheelchair_boarding" : "1",
		"route_id" : "C3-0",
		"trip_headsign" : "Armor",
		"route_type" : 3,
		"route_color" : "F8B323",
		"route_text_color" : "000000"
	},
	{
		"stop_id" : "AMCA2",
		"stop_name" : "Armoricaine",
		"stop_lat" : "47.25826258",
		"stop_lon" : "-1.64752203",
		"wheelchair_boarding" : "1",
		"route_id" : "139-0",
		"trip_headsign" : "Angevinière",
		"route_type" : 3,
		"route_color" : "FFFFFF",
		"route_text_color" : "E53138"
	},
	{
		"stop_id" : "AMCA2",
		"stop_name" : "Armoricaine",
		"stop_lat" : "47.25826258",
		"stop_lon" : "-1.64752203",
		"wheelchair_boarding" : "1",
		"route_id" : "149-0",
		"trip_headsign" : "Cheverny",
		"route_type" : 3,
		"route_color" : "FFFFFF",
		"route_text_color" : "E53138"
	},
	{
		"stop_id" : "AMCA1",
		"stop_name" : "Armoricaine",
		"stop_lat" : "47.25857293",
		"stop_lon" : "-1.64870677",
		"wheelchair_boarding" : "1",
		"route_id" : "159-0",
		"trip_headsign" : "Sautron",
		"route_type" : 3,
		"route_color" : "FFFFFF",
		"route_text_color" : "E53138"
	},
	{
		"stop_id" : "AMCA2",
		"stop_name" : "Armoricaine",
		"stop_lat" : "47.25826258",
		"stop_lon" : "-1.64752203",
		"wheelchair_boarding" : "1",
		"route_id" : "159-0",
		"trip_headsign" : "Angevinière",
		"route_type" : 3,
		"route_color" : "FFFFFF",
		"route_text_color" : "E53138"
	},
	{
		"stop_id" : "AMCA1",
		"stop_name" : "Armoricaine",
		"stop_lat" : "47.25857293",
		"stop_lon" : "-1.64870677",
		"wheelchair_boarding" : "1",
		"route_id" : "169-0",
		"trip_headsign" : "Sautron",
		"route_type" : 3,
		"route_color" : "FFFFFF",
		"route_text_color" : "E53138"
	},
	{
		"stop_id" : "AMCA2",
		"stop_name" : "Armoricaine",
		"stop_lat" : "47.25826258",
		"stop_lon" : "-1.64752203",
		"wheelchair_boarding" : "1",
		"route_id" : "69-0",
		"trip_headsign" : "Orvault Morlière",
		"route_type" : 3,
		"route_color" : "C0893A",
		"route_text_color" : "FFFFFF"
	},
	{
		"stop_id" : "AMCA1",
		"stop_name" : "Armoricaine",
		"stop_lat" : "47.25857293",
		"stop_lon" : "-1.64870677",
		"wheelchair_boarding" : "1",
		"route_id" : "69-0",
		"trip_headsign" : "Sautron",
		"route_type" : 3,
		"route_color" : "C0893A",
		"route_text_color" : "FFFFFF"
	},
	{
		"stop_id" : "ARMO2",
		"stop_name" : "Armorique",
		"stop_lat" : "47.27152266",
		"stop_lon" : "-1.44536593",
		"wheelchair_boarding" : "2",
		"route_id" : "105-0",
		"trip_headsign" : "Collège Sainte Anne",
		"route_type" : 3,
		"route_color" : "FFFFFF",
		"route_text_color" : "E53138"
	},
	{
		"stop_id" : "ARMO1",
		"stop_name" : "Armorique",
		"stop_lat" : "47.27143538",
		"stop_lon" : "-1.44489664",
		"wheelchair_boarding" : "2",
		"route_id" : "105-0",
		"trip_headsign" : "Centre de Thouaré",
		"route_type" : 3,
		"route_color" : "FFFFFF",
		"route_text_color" : "E53138"
	},
	{
		"stop_id" : "ARMO2",
		"stop_name" : "Armorique",
		"stop_lat" : "47.27152266",
		"stop_lon" : "-1.44536593",
		"wheelchair_boarding" : "2",
		"route_id" : "127-0",
		"trip_headsign" : "Monteverdi",
		"route_type" : 3,
		"route_color" : "FFFFFF",
		"route_text_color" : "E53138"
	},
	{
		"stop_id" : "ARMO2",
		"stop_name" : "Armorique",
		"stop_lat" : "47.27152266",
		"stop_lon" : "-1.44536593",
		"wheelchair_boarding" : "2",
		"route_id" : "137-0",
		"trip_headsign" : "Chinon \/ Monteverdi",
		"route_type" : 3,
		"route_color" : "FFFFFF",
		"route_text_color" : "E53138"
	},
	{
		"stop_id" : "ARMO2",
		"stop_name" : "Armorique",
		"stop_lat" : "47.27152266",
		"stop_lon" : "-1.44536593",
		"wheelchair_boarding" : "2",
		"route_id" : "137-0",
		"trip_headsign" : "Toutes Aides",
		"route_type" : 3,
		"route_color" : "FFFFFF",
		"route_text_color" : "E53138"
	},
	{
		"stop_id" : "ADBO2",
		"stop_name" : "Audubon",
		"stop_lat" : "47.21393466",
		"stop_lon" : "-1.72304070",
		"wheelchair_boarding" : "1",
		"route_id" : "101-0",
		"trip_headsign" : "Sinière",
		"route_type" : 3,
		"route_color" : "FFFFFF",
		"route_text_color" : "E53138"
	},
	{
		"stop_id" : "ADBO2",
		"stop_name" : "Audubon",
		"stop_lat" : "47.21393466",
		"stop_lon" : "-1.72304070",
		"wheelchair_boarding" : "1",
		"route_id" : "141-0",
		"trip_headsign" : "Sainte Philomène",
		"route_type" : 3,
		"route_color" : "FFFFFF",
		"route_text_color" : "E53138"
	},
	{
		"stop_id" : "ADBO1",
		"stop_name" : "Audubon",
		"stop_lat" : "47.21406679",
		"stop_lon" : "-1.72322787",
		"wheelchair_boarding" : "1",
		"route_id" : "91-0",
		"trip_headsign" : "Couëron-Bougon",
		"route_type" : 3,
		"route_color" : "009534",
		"route_text_color" : "FFFFFF"
	},
	{
		"stop_id" : "ADBO2",
		"stop_name" : "Audubon",
		"stop_lat" : "47.21393466",
		"stop_lon" : "-1.72304070",
		"wheelchair_boarding" : "1",
		"route_id" : "91-0",
		"trip_headsign" : "Mendès France - Bellevue",
		"route_type" : 3,
		"route_color" : "009534",
		"route_text_color" : "FFFFFF"
	},
	{
		"stop_id" : "ADBO1",
		"stop_name" : "Audubon",
		"stop_lat" : "47.21406679",
		"stop_lon" : "-1.72322787",
		"wheelchair_boarding" : "1",
		"route_id" : "E1-0",
		"trip_headsign" : "Couëron Océan",
		"route_type" : 3,
		"route_color" : "E53138",
		"route_text_color" : "FFFFFF"
	},
	{
		"stop_id" : "ADBO2",
		"stop_name" : "Audubon",
		"stop_lat" : "47.21393466",
		"stop_lon" : "-1.72304070",
		"wheelchair_boarding" : "1",
		"route_id" : "E1-0",
		"trip_headsign" : "Gare Maritime",
		"route_type" : 3,
		"route_color" : "E53138",
		"route_text_color" : "FFFFFF"
	},
	{
		"stop_id" : "AUGE1",
		"stop_name" : "Augé",
		"stop_lat" : "47.19498076",
		"stop_lon" : "-1.51740323",
		"wheelchair_boarding" : "2",
		"route_id" : "30-0",
		"trip_headsign" : "Trentemoult",
		"route_type" : 3,
		"route_color" : "FFED00",
		"route_text_color" : "000000"
	},
	{
		"stop_id" : "ALNE2",
		"stop_name" : "Aulne",
		"stop_lat" : "47.27628919",
		"stop_lon" : "-1.63841208",
		"wheelchair_boarding" : "1",
		"route_id" : "179-0",
		"trip_headsign" : "Orvault-Morlière",
		"route_type" : 3,
		"route_color" : "FFFFFF",
		"route_text_color" : "E53138"
	},
	{
		"stop_id" : "ALNE2",
		"stop_name" : "Aulne",
		"stop_lat" : "47.27628919",
		"stop_lon" : "-1.63841208",
		"wheelchair_boarding" : "1",
		"route_id" : "179-0",
		"trip_headsign" : "Les Anges",
		"route_type" : 3,
		"route_color" : "FFFFFF",
		"route_text_color" : "E53138"
	},
	{
		"stop_id" : "ALNE1",
		"stop_name" : "Aulne",
		"stop_lat" : "47.27698152",
		"stop_lon" : "-1.63902208",
		"wheelchair_boarding" : "1",
		"route_id" : "79-0",
		"trip_headsign" : "Orvault",
		"route_type" : 3,
		"route_color" : "F5BAC6",
		"route_text_color" : "000000"
	},
	{
		"stop_id" : "ALNE2",
		"stop_name" : "Aulne",
		"stop_lat" : "47.27628919",
		"stop_lon" : "-1.63841208",
		"wheelchair_boarding" : "1",
		"route_id" : "79-0",
		"trip_headsign" : "Beauséjour",
		"route_type" : 3,
		"route_color" : "F5BAC6",
		"route_text_color" : "000000"
	},
	{
		"stop_id" : "AURR1",
		"stop_name" : "Aurore",
		"stop_lat" : "47.26488128",
		"stop_lon" : "-1.58093056",
		"wheelchair_boarding" : "2",
		"route_id" : "59-0",
		"trip_headsign" : "Bout des Landes",
		"route_type" : 3,
		"route_color" : "F5BAC6",
		"route_text_color" : "000000"
	},
	{
		"stop_id" : "AURR2",
		"stop_name" : "Aurore",
		"stop_lat" : "47.26539508",
		"stop_lon" : "-1.58147497",
		"wheelchair_boarding" : "2",
		"route_id" : "59-0",
		"trip_headsign" : "Mendès France - Bellevue",
		"route_type" : 3,
		"route_color" : "F5BAC6",
		"route_text_color" : "000000"
	},
	{
		"stop_id" : "AVEN2",
		"stop_name" : "Aveneaux",
		"stop_lat" : "47.23283954",
		"stop_lon" : "-1.63053322",
		"wheelchair_boarding" : "1",
		"route_id" : "50-0",
		"trip_headsign" : "Basse Indre",
		"route_type" : 3,
		"route_color" : "FFED00",
		"route_text_color" : "000000"
	},
	{
		"stop_id" : "AVEN1",
		"stop_name" : "Aveneaux",
		"stop_lat" : "47.23391561",
		"stop_lon" : "-1.62972968",
		"wheelchair_boarding" : "1",
		"route_id" : "50-0",
		"trip_headsign" : "Porte de La Chapelle",
		"route_type" : 3,
		"route_color" : "FFED00",
		"route_text_color" : "000000"
	},
	{
		"stop_id" : "ADPI3",
		"stop_name" : "Avenue des Pins",
		"stop_lat" : "47.25370314",
		"stop_lon" : "-1.59775560",
		"wheelchair_boarding" : "1",
		"route_id" : "79-0",
		"trip_headsign" : "Orvault",
		"route_type" : 3,
		"route_color" : "F5BAC6",
		"route_text_color" : "000000"
	},
	{
		"stop_id" : "ADPI1",
		"stop_name" : "Avenue des Pins",
		"stop_lat" : "47.25325890",
		"stop_lon" : "-1.59659981",
		"wheelchair_boarding" : "1",
		"route_id" : "79-0",
		"trip_headsign" : "Beauséjour",
		"route_type" : 3,
		"route_color" : "F5BAC6",
		"route_text_color" : "000000"
	},
	{
		"stop_id" : "BBNI4",
		"stop_name" : "Babinière",
		"stop_lat" : "47.25929789",
		"stop_lon" : "-1.54625658",
		"wheelchair_boarding" : "1",
		"route_id" : "66-0",
		"trip_headsign" : "Ecole Centrale-Audencia",
		"route_type" : 3,
		"route_color" : "2C4393",
		"route_text_color" : "FFFFFF"
	},
	{
		"stop_id" : "BBNI4",
		"stop_name" : "Babinière",
		"stop_lat" : "47.25929789",
		"stop_lon" : "-1.54625658",
		"wheelchair_boarding" : "1",
		"route_id" : "66-0",
		"trip_headsign" : "Babinière",
		"route_type" : 3,
		"route_color" : "2C4393",
		"route_text_color" : "FFFFFF"
	},
	{
		"stop_id" : "CBAC1",
		"stop_name" : "Bac de Couëron",
		"stop_lat" : "47.20598337",
		"stop_lon" : "-1.75170597",
		"wheelchair_boarding" : "2",
		"route_id" : "131-0",
		"trip_headsign" : "Mendès France Bellevue",
		"route_type" : 3,
		"route_color" : "FFFFFF",
		"route_text_color" : "E53138"
	},
	{
		"stop_id" : "CBAC1",
		"stop_name" : "Bac de Couëron",
		"stop_lat" : "47.20598337",
		"stop_lon" : "-1.75170597",
		"wheelchair_boarding" : "2",
		"route_id" : "131-0",
		"trip_headsign" : "Bac de Couëron",
		"route_type" : 3,
		"route_color" : "FFFFFF",
		"route_text_color" : "E53138"
	},
	{
		"stop_id" : "CBAC1",
		"stop_name" : "Bac de Couëron",
		"stop_lat" : "47.20598337",
		"stop_lon" : "-1.75170597",
		"wheelchair_boarding" : "2",
		"route_id" : "71-0",
		"trip_headsign" : "François Mitterrand",
		"route_type" : 3,
		"route_color" : "CBD300",
		"route_text_color" : "000000"
	},
	{
		"stop_id" : "CBAC1",
		"stop_name" : "Bac de Couëron",
		"stop_lat" : "47.20598337",
		"stop_lon" : "-1.75170597",
		"wheelchair_boarding" : "2",
		"route_id" : "71-0",
		"trip_headsign" : "Bac de Couëron",
		"route_type" : 3,
		"route_color" : "CBD300",
		"route_text_color" : "000000"
	},
	{
		"stop_id" : "LPBA1",
		"stop_name" : "Bac du Pellerin",
		"stop_lat" : "47.20293814",
		"stop_lon" : "-1.75489396",
		"wheelchair_boarding" : "2",
		"route_id" : "78-0",
		"trip_headsign" : "Bac du Pellerin",
		"route_type" : 3,
		"route_color" : "F8B323",
		"route_text_color" : "000000"
	},
	{
		"stop_id" : "LPBA1",
		"stop_name" : "Bac du Pellerin",
		"stop_lat" : "47.20293814",
		"stop_lon" : "-1.75489396",
		"wheelchair_boarding" : "2",
		"route_id" : "78-0",
		"trip_headsign" : "Neustrie",
		"route_type" : 3,
		"route_color" : "F8B323",
		"route_text_color" : "000000"
	},
	{
		"stop_id" : "BAGA1",
		"stop_name" : "Bagatelle",
		"stop_lat" : "47.24348623",
		"stop_lon" : "-1.62022099",
		"wheelchair_boarding" : "1",
		"route_id" : "50-0",
		"trip_headsign" : "Basse Indre",
		"route_type" : 3,
		"route_color" : "FFED00",
		"route_text_color" : "000000"
	},
	{
		"stop_id" : "BAGA2",
		"stop_name" : "Bagatelle",
		"stop_lat" : "47.24353474",
		"stop_lon" : "-1.61993625",
		"wheelchair_boarding" : "1",
		"route_id" : "50-0",
		"trip_headsign" : "Porte de La Chapelle",
		"route_type" : 3,
		"route_color" : "FFED00",
		"route_text_color" : "000000"
	},
	{
		"stop_id" : "BALI1",
		"stop_name" : "Balinière",
		"stop_lat" : "47.18625167",
		"stop_lon" : "-1.55378382",
		"wheelchair_boarding" : "1",
		"route_id" : "2-0",
		"trip_headsign" : "Orvault Grand Val",
		"route_type" : 0,
		"route_color" : "E53138",
		"route_text_color" : "FFFFFF"
	},
	{
		"stop_id" : "BALI2",
		"stop_name" : "Balinière",
		"stop_lat" : "47.18605090",
		"stop_lon" : "-1.55402157",
		"wheelchair_boarding" : "1",
		"route_id" : "2-0",
		"trip_headsign" : "Gare de Pont Rousseau",
		"route_type" : 0,
		"route_color" : "E53138",
		"route_text_color" : "FFFFFF"
	},
	{
		"stop_id" : "BALI2",
		"stop_name" : "Balinière",
		"stop_lat" : "47.18605090",
		"stop_lon" : "-1.55402157",
		"wheelchair_boarding" : "1",
		"route_id" : "3-0",
		"trip_headsign" : "Neustrie",
		"route_type" : 0,
		"route_color" : "0079BC",
		"route_text_color" : "FFFFFF"
	},
	{
		"stop_id" : "BALI1",
		"stop_name" : "Balinière",
		"stop_lat" : "47.18625167",
		"stop_lon" : "-1.55378382",
		"wheelchair_boarding" : "1",
		"route_id" : "3-0",
		"trip_headsign" : "Marcel Paul",
		"route_type" : 0,
		"route_color" : "0079BC",
		"route_text_color" : "FFFFFF"
	},
	{
		"stop_id" : "BALI4",
		"stop_name" : "Balinière",
		"stop_lat" : "47.18479616",
		"stop_lon" : "-1.55413119",
		"wheelchair_boarding" : "1",
		"route_id" : "38-0",
		"trip_headsign" : "Greneraie",
		"route_type" : 3,
		"route_color" : "009640",
		"route_text_color" : "FFFFFF"
	},
	{
		"stop_id" : "BALI3",
		"stop_name" : "Balinière",
		"stop_lat" : "47.18466884",
		"stop_lon" : "-1.55440730",
		"wheelchair_boarding" : "1",
		"route_id" : "38-0",
		"trip_headsign" : "Aéroport",
		"route_type" : 3,
		"route_color" : "009640",
		"route_text_color" : "FFFFFF"
	},
	{
		"stop_id" : "BBRE2",
		"stop_name" : "Barbinière",
		"stop_lat" : "47.15984337",
		"stop_lon" : "-1.48162038",
		"wheelchair_boarding" : "1",
		"route_id" : "47-0",
		"trip_headsign" : "Pégers \/ Grande Noëlle",
		"route_type" : 3,
		"route_color" : "BEABD0",
		"route_text_color" : "FFFFFF"
	},
	{
		"stop_id" : "BBRE1",
		"stop_name" : "Barbinière",
		"stop_lat" : "47.15951428",
		"stop_lon" : "-1.48173952",
		"wheelchair_boarding" : "1",
		"route_id" : "47-0",
		"trip_headsign" : "Vertou",
		"route_type" : 3,
		"route_color" : "BEABD0",
		"route_text_color" : "FFFFFF"
	},
	{
		"stop_id" : "BRNI1",
		"stop_name" : "Baronnière",
		"stop_lat" : "47.25962594",
		"stop_lon" : "-1.60374682",
		"wheelchair_boarding" : "1",
		"route_id" : "179-0",
		"trip_headsign" : "Les Anges",
		"route_type" : 3,
		"route_color" : "FFFFFF",
		"route_text_color" : "E53138"
	},
	{
		"stop_id" : "BRNI2",
		"stop_name" : "Baronnière",
		"stop_lat" : "47.25953711",
		"stop_lon" : "-1.60392152",
		"wheelchair_boarding" : "1",
		"route_id" : "179-0",
		"trip_headsign" : "Orvault-Morlière",
		"route_type" : 3,
		"route_color" : "FFFFFF",
		"route_text_color" : "E53138"
	},
	{
		"stop_id" : "BRNI2",
		"stop_name" : "Baronnière",
		"stop_lat" : "47.25953711",
		"stop_lon" : "-1.60392152",
		"wheelchair_boarding" : "1",
		"route_id" : "50-0",
		"trip_headsign" : "Basse Indre",
		"route_type" : 3,
		"route_color" : "FFED00",
		"route_text_color" : "000000"
	},
	{
		"stop_id" : "BRNI1",
		"stop_name" : "Baronnière",
		"stop_lat" : "47.25962594",
		"stop_lon" : "-1.60374682",
		"wheelchair_boarding" : "1",
		"route_id" : "50-0",
		"trip_headsign" : "Porte de La Chapelle",
		"route_type" : 3,
		"route_color" : "FFED00",
		"route_text_color" : "000000"
	},
	{
		"stop_id" : "BRNI2",
		"stop_name" : "Baronnière",
		"stop_lat" : "47.25953711",
		"stop_lon" : "-1.60392152",
		"wheelchair_boarding" : "1",
		"route_id" : "79-0",
		"trip_headsign" : "Beauséjour",
		"route_type" : 3,
		"route_color" : "F5BAC6",
		"route_text_color" : "000000"
	},
	{
		"stop_id" : "BRNI1",
		"stop_name" : "Baronnière",
		"stop_lat" : "47.25962594",
		"stop_lon" : "-1.60374682",
		"wheelchair_boarding" : "1",
		"route_id" : "79-0",
		"trip_headsign" : "Orvault",
		"route_type" : 3,
		"route_color" : "F5BAC6",
		"route_text_color" : "000000"
	},
	{
		"stop_id" : "BCNY2",
		"stop_name" : "Bas-Chantenay",
		"stop_lat" : "47.19818576",
		"stop_lon" : "-1.58893273",
		"wheelchair_boarding" : "1",
		"route_id" : "10-0",
		"trip_headsign" : "Bd de Doulon",
		"route_type" : 3,
		"route_color" : "FFED00",
		"route_text_color" : "000000"
	},
	{
		"stop_id" : "BCNY1",
		"stop_name" : "Bas-Chantenay",
		"stop_lat" : "47.19827246",
		"stop_lon" : "-1.58919017",
		"wheelchair_boarding" : "1",
		"route_id" : "10-0",
		"trip_headsign" : "Gare de Chantenay",
		"route_type" : 3,
		"route_color" : "FFED00",
		"route_text_color" : "000000"
	},
	{
		"stop_id" : "BCNY1",
		"stop_name" : "Bas-Chantenay",
		"stop_lat" : "47.19827246",
		"stop_lon" : "-1.58919017",
		"wheelchair_boarding" : "1",
		"route_id" : "81-0",
		"trip_headsign" : "Mendès France - Bellevue",
		"route_type" : 3,
		"route_color" : "00A4A7",
		"route_text_color" : "FFFFFF"
	},
	{
		"stop_id" : "BCNY2",
		"stop_name" : "Bas-Chantenay",
		"stop_lat" : "47.19818576",
		"stop_lon" : "-1.58893273",
		"wheelchair_boarding" : "1",
		"route_id" : "81-0",
		"trip_headsign" : "Gare Maritime",
		"route_type" : 3,
		"route_color" : "00A4A7",
		"route_text_color" : "FFFFFF"
	},
	{
		"stop_id" : "BCNY1",
		"stop_name" : "Bas-Chantenay",
		"stop_lat" : "47.19827246",
		"stop_lon" : "-1.58919017",
		"wheelchair_boarding" : "1",
		"route_id" : "C1-0",
		"trip_headsign" : "Gare de Chantenay",
		"route_type" : 3,
		"route_color" : "34B4E4",
		"route_text_color" : "FFFFFF"
	},
	{
		"stop_id" : "BCNY2",
		"stop_name" : "Bas-Chantenay",
		"stop_lat" : "47.19818576",
		"stop_lon" : "-1.58893273",
		"wheelchair_boarding" : "1",
		"route_id" : "C1-0",
		"trip_headsign" : "Haluchère - Batignolles",
		"route_type" : 3,
		"route_color" : "34B4E4",
		"route_text_color" : "FFFFFF"
	},
	{
		"stop_id" : "BCNY1",
		"stop_name" : "Bas-Chantenay",
		"stop_lat" : "47.19827246",
		"stop_lon" : "-1.58919017",
		"wheelchair_boarding" : "1",
		"route_id" : "C20-0",
		"trip_headsign" : "Ecole Centrale - Audencia",
		"route_type" : 3,
		"route_color" : "F8EA22",
		"route_text_color" : "000000"
	},
	{
		"stop_id" : "BCNY2",
		"stop_name" : "Bas-Chantenay",
		"stop_lat" : "47.19818576",
		"stop_lon" : "-1.58893273",
		"wheelchair_boarding" : "1",
		"route_id" : "C20-0",
		"trip_headsign" : "Gare Maritime",
		"route_type" : 3,
		"route_color" : "F8EA22",
		"route_text_color" : "000000"
	},
	{
		"stop_id" : "BCNY9",
		"stop_name" : "Bas-Chantenay",
		"stop_lat" : "47.19564384",
		"stop_lon" : "-1.58864718",
		"wheelchair_boarding" : "1",
		"route_id" : "N2-0",
		"trip_headsign" : "Hangar à Bananes",
		"route_type" : 4,
		"route_color" : "2AAAB6",
		"route_text_color" : "FFFFFF"
	},
	{
		"stop_id" : "BCNY9",
		"stop_name" : "Bas-Chantenay",
		"stop_lat" : "47.19564384",
		"stop_lon" : "-1.58864718",
		"wheelchair_boarding" : "1",
		"route_id" : "N2-0",
		"trip_headsign" : "Bas-Chantenay",
		"route_type" : 4,
		"route_color" : "2AAAB6",
		"route_text_color" : "FFFFFF"
	},
	{
		"stop_id" : "BCNY3",
		"stop_name" : "Bas-Chantenay",
		"stop_lat" : "47.19838620",
		"stop_lon" : "-1.58796689",
		"wheelchair_boarding" : "2",
		"route_id" : "NO-0",
		"trip_headsign" : "Hangar à Bananes",
		"route_type" : 3,
		"route_color" : "FFFA3E",
		"route_text_color" : "242D77"
	},
	{
		"stop_id" : "BGLA1",
		"stop_name" : "Basse-Goulaine",
		"stop_lat" : "47.21123001",
		"stop_lon" : "-1.46655607",
		"wheelchair_boarding" : "2",
		"route_id" : "162-0",
		"trip_headsign" : "La Herdrie",
		"route_type" : 3,
		"route_color" : "FFFFFF",
		"route_text_color" : "E53138"
	},
	{
		"stop_id" : "BGLA2",
		"stop_name" : "Basse-Goulaine",
		"stop_lat" : "47.21117541",
		"stop_lon" : "-1.46670948",
		"wheelchair_boarding" : "2",
		"route_id" : "162-0",
		"trip_headsign" : "Pirmil",
		"route_type" : 3,
		"route_color" : "FFFFFF",
		"route_text_color" : "E53138"
	},
	{
		"stop_id" : "BGLA6",
		"stop_name" : "Basse-Goulaine",
		"stop_lat" : "47.21039161",
		"stop_lon" : "-1.46603522",
		"wheelchair_boarding" : "1",
		"route_id" : "60-0",
		"trip_headsign" : "Quintaine",
		"route_type" : 3,
		"route_color" : "F8EA22",
		"route_text_color" : "000000"
	},
	{
		"stop_id" : "BGLA5",
		"stop_name" : "Basse-Goulaine",
		"stop_lat" : "47.21053568",
		"stop_lon" : "-1.46611815",
		"wheelchair_boarding" : "1",
		"route_id" : "60-0",
		"trip_headsign" : "Vertou",
		"route_type" : 3,
		"route_color" : "F8EA22",
		"route_text_color" : "000000"
	},
	{
		"stop_id" : "BGLA4",
		"stop_name" : "Basse-Goulaine",
		"stop_lat" : "47.21064215",
		"stop_lon" : "-1.46458331",
		"wheelchair_boarding" : "1",
		"route_id" : "C9-0",
		"trip_headsign" : "Pirmil",
		"route_type" : 3,
		"route_color" : "F5B8C6",
		"route_text_color" : "000000"
	},
	{
		"stop_id" : "BGLA3",
		"stop_name" : "Basse-Goulaine",
		"stop_lat" : "47.21092041",
		"stop_lon" : "-1.46488460",
		"wheelchair_boarding" : "1",
		"route_id" : "C9-0",
		"trip_headsign" : "Pirmil",
		"route_type" : 3,
		"route_color" : "F5B8C6",
		"route_text_color" : "000000"
	},
	{
		"stop_id" : "BGLA3",
		"stop_name" : "Basse-Goulaine",
		"stop_lat" : "47.21092041",
		"stop_lon" : "-1.46488460",
		"wheelchair_boarding" : "1",
		"route_id" : "C9-0",
		"trip_headsign" : "Basse Goulaine \/ Chalonges",
		"route_type" : 3,
		"route_color" : "F5B8C6",
		"route_text_color" : "000000"
	},
	{
		"stop_id" : "BIND3",
		"stop_name" : "Basse-Indre",
		"stop_lat" : "47.19770693",
		"stop_lon" : "-1.67305608",
		"wheelchair_boarding" : "1",
		"route_id" : "50-0",
		"trip_headsign" : "Basse Indre",
		"route_type" : 3,
		"route_color" : "FFED00",
		"route_text_color" : "000000"
	},
	{
		"stop_id" : "BIND3",
		"stop_name" : "Basse-Indre",
		"stop_lat" : "47.19770693",
		"stop_lon" : "-1.67305608",
		"wheelchair_boarding" : "1",
		"route_id" : "50-0",
		"trip_headsign" : "Porte de La Chapelle",
		"route_type" : 3,
		"route_color" : "FFED00",
		"route_text_color" : "000000"
	},
	{
		"stop_id" : "BCHE3",
		"stop_name" : "Basse Chênaie",
		"stop_lat" : "47.24102763",
		"stop_lon" : "-1.50856697",
		"wheelchair_boarding" : "1",
		"route_id" : "12-0",
		"trip_headsign" : "Jules Verne",
		"route_type" : 3,
		"route_color" : "B5DDF3",
		"route_text_color" : "000000"
	},
	{
		"stop_id" : "BCHE4",
		"stop_name" : "Basse Chênaie",
		"stop_lat" : "47.24192686",
		"stop_lon" : "-1.50893315",
		"wheelchair_boarding" : "1",
		"route_id" : "12-0",
		"trip_headsign" : "Beauséjour",
		"route_type" : 3,
		"route_color" : "B5DDF3",
		"route_text_color" : "000000"
	},
	{
		"stop_id" : "BCHE3",
		"stop_name" : "Basse Chênaie",
		"stop_lat" : "47.24102763",
		"stop_lon" : "-1.50856697",
		"wheelchair_boarding" : "1",
		"route_id" : "127-0",
		"trip_headsign" : "Monteverdi",
		"route_type" : 3,
		"route_color" : "FFFFFF",
		"route_text_color" : "E53138"
	},
	{
		"stop_id" : "BCHE3",
		"stop_name" : "Basse Chênaie",
		"stop_lat" : "47.24102763",
		"stop_lon" : "-1.50856697",
		"wheelchair_boarding" : "1",
		"route_id" : "137-0",
		"trip_headsign" : "Chinon \/ Monteverdi",
		"route_type" : 3,
		"route_color" : "FFFFFF",
		"route_text_color" : "E53138"
	},
	{
		"stop_id" : "BCHE2",
		"stop_name" : "Basse Chênaie",
		"stop_lat" : "47.24145339",
		"stop_lon" : "-1.50835821",
		"wheelchair_boarding" : "1",
		"route_id" : "137-0",
		"trip_headsign" : "Toutes Aides",
		"route_type" : 3,
		"route_color" : "FFFFFF",
		"route_text_color" : "E53138"
	},
	{
		"stop_id" : "BCHE2",
		"stop_name" : "Basse Chênaie",
		"stop_lat" : "47.24145339",
		"stop_lon" : "-1.50835821",
		"wheelchair_boarding" : "1",
		"route_id" : "C7-0",
		"trip_headsign" : "Souillarderie",
		"route_type" : 3,
		"route_color" : "CBD300",
		"route_text_color" : "000000"
	},
	{
		"stop_id" : "BCHE1",
		"stop_name" : "Basse Chênaie",
		"stop_lat" : "47.24117824",
		"stop_lon" : "-1.50918217",
		"wheelchair_boarding" : "1",
		"route_id" : "C7-0",
		"trip_headsign" : "Trianon \/ Clairais",
		"route_type" : 3,
		"route_color" : "CBD300",
		"route_text_color" : "000000"
	},
	{
		"stop_id" : "BHLR1",
		"stop_name" : "Basse Hillière",
		"stop_lat" : "47.28667516",
		"stop_lon" : "-1.42687789",
		"wheelchair_boarding" : "2",
		"route_id" : "135-0",
		"trip_headsign" : "Petits Champs Blancs",
		"route_type" : 3,
		"route_color" : "FFFFFF",
		"route_text_color" : "E53138"
	},
	{
		"stop_id" : "BILE1",
		"stop_name" : "Basse Île",
		"stop_lat" : "47.19596508",
		"stop_lon" : "-1.56213284",
		"wheelchair_boarding" : "2",
		"route_id" : "36-0",
		"trip_headsign" : "Greneraie",
		"route_type" : 3,
		"route_color" : "00A4A7",
		"route_text_color" : "FFFFFF"
	},
	{
		"stop_id" : "BILE2",
		"stop_name" : "Basse Île",
		"stop_lat" : "47.19568871",
		"stop_lon" : "-1.56324647",
		"wheelchair_boarding" : "2",
		"route_id" : "36-0",
		"trip_headsign" : "Croix Jeannette",
		"route_type" : 3,
		"route_color" : "00A4A7",
		"route_text_color" : "FFFFFF"
	},
	{
		"stop_id" : "BILE1",
		"stop_name" : "Basse Île",
		"stop_lat" : "47.19596508",
		"stop_lon" : "-1.56213284",
		"wheelchair_boarding" : "2",
		"route_id" : "NS-0",
		"trip_headsign" : "Hangar à Bananes",
		"route_type" : 3,
		"route_color" : "00FFC2",
		"route_text_color" : "242D77"
	},
	{
		"stop_id" : "BAVO2",
		"stop_name" : "Basse Orévière",
		"stop_lat" : "47.22038027",
		"stop_lon" : "-1.65886933",
		"wheelchair_boarding" : "2",
		"route_id" : "71-0",
		"trip_headsign" : "François Mitterrand",
		"route_type" : 3,
		"route_color" : "CBD300",
		"route_text_color" : "000000"
	},
	{
		"stop_id" : "BAVO1",
		"stop_name" : "Basse Orévière",
		"stop_lat" : "47.22046457",
		"stop_lon" : "-1.65898404",
		"wheelchair_boarding" : "2",
		"route_id" : "71-0",
		"trip_headsign" : "Bac de Couëron",
		"route_type" : 3,
		"route_color" : "CBD300",
		"route_text_color" : "000000"
	},
	{
		"stop_id" : "BSTI2",
		"stop_name" : "Bastière",
		"stop_lat" : "47.14902552",
		"stop_lon" : "-1.45932664",
		"wheelchair_boarding" : "2",
		"route_id" : "47-0",
		"trip_headsign" : "Vertou",
		"route_type" : 3,
		"route_color" : "BEABD0",
		"route_text_color" : "FFFFFF"
	},
	{
		"stop_id" : "BSTI1",
		"stop_name" : "Bastière",
		"stop_lat" : "47.14843303",
		"stop_lon" : "-1.45940479",
		"wheelchair_boarding" : "2",
		"route_id" : "47-0",
		"trip_headsign" : "Pégers \/ Grande Noëlle",
		"route_type" : 3,
		"route_color" : "BEABD0",
		"route_text_color" : "FFFFFF"
	},
	{
		"stop_id" : "BAST2",
		"stop_name" : "Bastille",
		"stop_lat" : "47.17939569",
		"stop_lon" : "-1.59716272",
		"wheelchair_boarding" : "2",
		"route_id" : "36-0",
		"trip_headsign" : "Greneraie",
		"route_type" : 3,
		"route_color" : "00A4A7",
		"route_text_color" : "FFFFFF"
	},
	{
		"stop_id" : "BAS98",
		"stop_name" : "Bastille",
		"stop_lat" : "47.17940962",
		"stop_lon" : "-1.59717695",
		"wheelchair_boarding" : "2",
		"route_id" : "36-0",
		"trip_headsign" : "Croix Jeannette",
		"route_type" : 3,
		"route_color" : "00A4A7",
		"route_text_color" : "FFFFFF"
	},
	{
		"stop_id" : "BAST1",
		"stop_name" : "Bastille",
		"stop_lat" : "47.17901270",
		"stop_lon" : "-1.59695756",
		"wheelchair_boarding" : "2",
		"route_id" : "36-0",
		"trip_headsign" : "Croix Jeannette",
		"route_type" : 3,
		"route_color" : "00A4A7",
		"route_text_color" : "FFFFFF"
	},
	{
		"stop_id" : "BAS99",
		"stop_name" : "Bastille",
		"stop_lat" : "47.17898673",
		"stop_lon" : "-1.59695301",
		"wheelchair_boarding" : "2",
		"route_id" : "36-0",
		"trip_headsign" : "Greneraie",
		"route_type" : 3,
		"route_color" : "00A4A7",
		"route_text_color" : "FFFFFF"
	},
	{
		"stop_id" : "BAST1",
		"stop_name" : "Bastille",
		"stop_lat" : "47.17901270",
		"stop_lon" : "-1.59695756",
		"wheelchair_boarding" : "2",
		"route_id" : "78-0",
		"trip_headsign" : "Neustrie",
		"route_type" : 3,
		"route_color" : "F8B323",
		"route_text_color" : "000000"
	},
	{
		"stop_id" : "BAST2",
		"stop_name" : "Bastille",
		"stop_lat" : "47.17939569",
		"stop_lon" : "-1.59716272",
		"wheelchair_boarding" : "2",
		"route_id" : "78-0",
		"trip_headsign" : "Bac du Pellerin",
		"route_type" : 3,
		"route_color" : "F8B323",
		"route_text_color" : "000000"
	},
	{
		"stop_id" : "BAST1",
		"stop_name" : "Bastille",
		"stop_lat" : "47.17901270",
		"stop_lon" : "-1.59695756",
		"wheelchair_boarding" : "2",
		"route_id" : "88-0",
		"trip_headsign" : "Neustrie",
		"route_type" : 3,
		"route_color" : "BEABD0",
		"route_text_color" : "FFFFFF"
	},
	{
		"stop_id" : "BAST2",
		"stop_name" : "Bastille",
		"stop_lat" : "47.17939569",
		"stop_lon" : "-1.59716272",
		"wheelchair_boarding" : "2",
		"route_id" : "88-0",
		"trip_headsign" : "Château d'Aux",
		"route_type" : 3,
		"route_color" : "BEABD0",
		"route_text_color" : "FFFFFF"
	},
	{
		"stop_id" : "BATI1",
		"stop_name" : "Batignolles",
		"stop_lat" : "47.25554394",
		"stop_lon" : "-1.52963613",
		"wheelchair_boarding" : "1",
		"route_id" : "75-0",
		"trip_headsign" : "Charbonneau",
		"route_type" : 3,
		"route_color" : "E9C389",
		"route_text_color" : "000000"
	},
	{
		"stop_id" : "BATI2",
		"stop_name" : "Batignolles",
		"stop_lat" : "47.25556045",
		"stop_lon" : "-1.53003021",
		"wheelchair_boarding" : "1",
		"route_id" : "75-0",
		"trip_headsign" : "Facultés",
		"route_type" : 3,
		"route_color" : "E9C389",
		"route_text_color" : "000000"
	},
	{
		"stop_id" : "BATI2",
		"stop_name" : "Batignolles",
		"stop_lat" : "47.25556045",
		"stop_lon" : "-1.53003021",
		"wheelchair_boarding" : "1",
		"route_id" : "C6-0",
		"trip_headsign" : "Hermeland",
		"route_type" : 3,
		"route_color" : "BEABD0",
		"route_text_color" : "FFFFFF"
	},
	{
		"stop_id" : "BATI1",
		"stop_name" : "Batignolles",
		"stop_lat" : "47.25554394",
		"stop_lon" : "-1.52963613",
		"wheelchair_boarding" : "1",
		"route_id" : "C6-0",
		"trip_headsign" : "Chantrerie Grandes Ecoles",
		"route_type" : 3,
		"route_color" : "BEABD0",
		"route_text_color" : "FFFFFF"
	},
	{
		"stop_id" : "BATI1",
		"stop_name" : "Batignolles",
		"stop_lat" : "47.25554394",
		"stop_lon" : "-1.52963613",
		"wheelchair_boarding" : "1",
		"route_id" : "NC-0",
		"trip_headsign" : "Chantrerie Grandes Ecoles",
		"route_type" : 3,
		"route_color" : "FFFFFF",
		"route_text_color" : "242D77"
	},
	{
		"stop_id" : "BDEL2",
		"stop_name" : "Baudelaire",
		"stop_lat" : "47.23393631",
		"stop_lon" : "-1.59256577",
		"wheelchair_boarding" : "2",
		"route_id" : "59-0",
		"trip_headsign" : "Bout des Landes",
		"route_type" : 3,
		"route_color" : "F5BAC6",
		"route_text_color" : "000000"
	},
	{
		"stop_id" : "BDEL1",
		"stop_name" : "Baudelaire",
		"stop_lat" : "47.23363734",
		"stop_lon" : "-1.59309258",
		"wheelchair_boarding" : "1",
		"route_id" : "59-0",
		"trip_headsign" : "Mendès France - Bellevue",
		"route_type" : 3,
		"route_color" : "F5BAC6",
		"route_text_color" : "000000"
	},
	{
		"stop_id" : "BDEL2",
		"stop_name" : "Baudelaire",
		"stop_lat" : "47.23393631",
		"stop_lon" : "-1.59256577",
		"wheelchair_boarding" : "2",
		"route_id" : "89-0",
		"trip_headsign" : "Beauséjour",
		"route_type" : 3,
		"route_color" : "77AD1C",
		"route_text_color" : "FFFFFF"
	},
	{
		"stop_id" : "BDEL1",
		"stop_name" : "Baudelaire",
		"stop_lat" : "47.23363734",
		"stop_lon" : "-1.59309258",
		"wheelchair_boarding" : "1",
		"route_id" : "89-0",
		"trip_headsign" : "Le Cardo",
		"route_type" : 3,
		"route_color" : "77AD1C",
		"route_text_color" : "FFFFFF"
	},
	{
		"stop_id" : "BAUG1",
		"stop_name" : "Baugerie",
		"stop_lat" : "47.20344362",
		"stop_lon" : "-1.52086462",
		"wheelchair_boarding" : "1",
		"route_id" : "152-0",
		"trip_headsign" : "La Herdrie",
		"route_type" : 3,
		"route_color" : "FFFFFF",
		"route_text_color" : "E53138"
	},
	{
		"stop_id" : "BAUG2",
		"stop_name" : "Baugerie",
		"stop_lat" : "47.20379388",
		"stop_lon" : "-1.52027534",
		"wheelchair_boarding" : "1",
		"route_id" : "162-0",
		"trip_headsign" : "Pirmil",
		"route_type" : 3,
		"route_color" : "FFFFFF",
		"route_text_color" : "E53138"
	},
	{
		"stop_id" : "BAUG1",
		"stop_name" : "Baugerie",
		"stop_lat" : "47.20344362",
		"stop_lon" : "-1.52086462",
		"wheelchair_boarding" : "1",
		"route_id" : "162-0",
		"trip_headsign" : "La Herdrie",
		"route_type" : 3,
		"route_color" : "FFFFFF",
		"route_text_color" : "E53138"
	},
	{
		"stop_id" : "BAUG1",
		"stop_name" : "Baugerie",
		"stop_lat" : "47.20344362",
		"stop_lon" : "-1.52086462",
		"wheelchair_boarding" : "1",
		"route_id" : "C9-0",
		"trip_headsign" : "Basse Goulaine \/ Chalonges",
		"route_type" : 3,
		"route_color" : "F5B8C6",
		"route_text_color" : "000000"
	},
	{
		"stop_id" : "BAUG2",
		"stop_name" : "Baugerie",
		"stop_lat" : "47.20379388",
		"stop_lon" : "-1.52027534",
		"wheelchair_boarding" : "1",
		"route_id" : "C9-0",
		"trip_headsign" : "Pirmil",
		"route_type" : 3,
		"route_color" : "F5B8C6",
		"route_text_color" : "000000"
	},
	{
		"stop_id" : "BCGA4",
		"stop_name" : "Bd Charles Gautier",
		"stop_lat" : "47.22282517",
		"stop_lon" : "-1.60702642",
		"wheelchair_boarding" : "1",
		"route_id" : "59-0",
		"trip_headsign" : "Bout des Landes",
		"route_type" : 3,
		"route_color" : "F5BAC6",
		"route_text_color" : "000000"
	},
	{
		"stop_id" : "BCGA3",
		"stop_name" : "Bd Charles Gautier",
		"stop_lat" : "47.22282066",
		"stop_lon" : "-1.60715830",
		"wheelchair_boarding" : "1",
		"route_id" : "59-0",
		"trip_headsign" : "Mendès France - Bellevue",
		"route_type" : 3,
		"route_color" : "F5BAC6",
		"route_text_color" : "000000"
	},
	{
		"stop_id" : "BCGA1",
		"stop_name" : "Bd Charles Gautier",
		"stop_lat" : "47.22207394",
		"stop_lon" : "-1.60729098",
		"wheelchair_boarding" : "1",
		"route_id" : "C3-0",
		"trip_headsign" : "Armor",
		"route_type" : 3,
		"route_color" : "F8B323",
		"route_text_color" : "000000"
	},
	{
		"stop_id" : "BCGA2",
		"stop_name" : "Bd Charles Gautier",
		"stop_lat" : "47.22197075",
		"stop_lon" : "-1.60706920",
		"wheelchair_boarding" : "1",
		"route_id" : "C3-0",
		"trip_headsign" : "Bd de Doulon",
		"route_type" : 3,
		"route_color" : "F8B323",
		"route_text_color" : "000000"
	},
	{
		"stop_id" : "BDOU2",
		"stop_name" : "Bd de Doulon",
		"stop_lat" : "47.22432181",
		"stop_lon" : "-1.52018349",
		"wheelchair_boarding" : "1",
		"route_id" : "1-0",
		"trip_headsign" : "François Mitterrand \/ Jamet",
		"route_type" : 0,
		"route_color" : "007A45",
		"route_text_color" : "FFFFFF"
	},
	{
		"stop_id" : "BDOU1",
		"stop_name" : "Bd de Doulon",
		"stop_lat" : "47.22471553",
		"stop_lon" : "-1.51977559",
		"wheelchair_boarding" : "1",
		"route_id" : "1-0",
		"trip_headsign" : "Beaujoire \/ Ranzay",
		"route_type" : 0,
		"route_color" : "007A45",
		"route_text_color" : "FFFFFF"
	},
	{
		"stop_id" : "BDOU3",
		"stop_name" : "Bd de Doulon",
		"stop_lat" : "47.22439761",
		"stop_lon" : "-1.52020614",
		"wheelchair_boarding" : "1",
		"route_id" : "10-0",
		"trip_headsign" : "Gare de Chantenay",
		"route_type" : 3,
		"route_color" : "FFED00",
		"route_text_color" : "000000"
	},
	{
		"stop_id" : "BDOU3",
		"stop_name" : "Bd de Doulon",
		"stop_lat" : "47.22439761",
		"stop_lon" : "-1.52020614",
		"wheelchair_boarding" : "1",
		"route_id" : "10-0",
		"trip_headsign" : "Bd de Doulon",
		"route_type" : 3,
		"route_color" : "FFED00",
		"route_text_color" : "000000"
	},
	{
		"stop_id" : "BDOU6",
		"stop_name" : "Bd de Doulon",
		"stop_lat" : "47.22382940",
		"stop_lon" : "-1.51977252",
		"wheelchair_boarding" : "1",
		"route_id" : "C3-0",
		"trip_headsign" : "Bd de Doulon",
		"route_type" : 3,
		"route_color" : "F8B323",
		"route_text_color" : "000000"
	},
	{
		"stop_id" : "BDOU7",
		"stop_name" : "Bd de Doulon",
		"stop_lat" : "47.22407694",
		"stop_lon" : "-1.51988423",
		"wheelchair_boarding" : "1",
		"route_id" : "C3-0",
		"trip_headsign" : "Bd de Doulon",
		"route_type" : 3,
		"route_color" : "F8B323",
		"route_text_color" : "000000"
	},
	{
		"stop_id" : "BDOU7",
		"stop_name" : "Bd de Doulon",
		"stop_lat" : "47.22407694",
		"stop_lon" : "-1.51988423",
		"wheelchair_boarding" : "1",
		"route_id" : "C3-0",
		"trip_headsign" : "Armor",
		"route_type" : 3,
		"route_color" : "F8B323",
		"route_text_color" : "000000"
	},
	{
		"stop_id" : "BDAN3",
		"stop_name" : "Bd des Anglais",
		"stop_lat" : "47.22672232",
		"stop_lon" : "-1.58294850",
		"wheelchair_boarding" : "1",
		"route_id" : "10-0",
		"trip_headsign" : "Gare de Chantenay",
		"route_type" : 3,
		"route_color" : "FFED00",
		"route_text_color" : "000000"
	},
	{
		"stop_id" : "BDAN4",
		"stop_name" : "Bd des Anglais",
		"stop_lat" : "47.22617423",
		"stop_lon" : "-1.58312120",
		"wheelchair_boarding" : "1",
		"route_id" : "10-0",
		"trip_headsign" : "Bd de Doulon",
		"route_type" : 3,
		"route_color" : "FFED00",
		"route_text_color" : "000000"
	},
	{
		"stop_id" : "BDAN2",
		"stop_name" : "Bd des Anglais",
		"stop_lat" : "47.22641956",
		"stop_lon" : "-1.58332296",
		"wheelchair_boarding" : "1",
		"route_id" : "54-0",
		"trip_headsign" : "Saupin",
		"route_type" : 3,
		"route_color" : "CBD300",
		"route_text_color" : "000000"
	},
	{
		"stop_id" : "BDAN1",
		"stop_name" : "Bd des Anglais",
		"stop_lat" : "47.22639931",
		"stop_lon" : "-1.58267361",
		"wheelchair_boarding" : "1",
		"route_id" : "54-0",
		"trip_headsign" : "Marcel Paul",
		"route_type" : 3,
		"route_color" : "CBD300",
		"route_text_color" : "000000"
	},
	{
		"stop_id" : "BDSP2",
		"stop_name" : "Bd des Sports",
		"stop_lat" : "47.16564624",
		"stop_lon" : "-1.46885999",
		"wheelchair_boarding" : "1",
		"route_id" : "47-0",
		"trip_headsign" : "Pégers \/ Grande Noëlle",
		"route_type" : 3,
		"route_color" : "BEABD0",
		"route_text_color" : "FFFFFF"
	},
	{
		"stop_id" : "BDSP1",
		"stop_name" : "Bd des Sports",
		"stop_lat" : "47.16584432",
		"stop_lon" : "-1.46801701",
		"wheelchair_boarding" : "1",
		"route_id" : "47-0",
		"trip_headsign" : "Vertou",
		"route_type" : 3,
		"route_color" : "BEABD0",
		"route_text_color" : "FFFFFF"
	},
	{
		"stop_id" : "BDSP2",
		"stop_name" : "Bd des Sports",
		"stop_lat" : "47.16564624",
		"stop_lon" : "-1.46885999",
		"wheelchair_boarding" : "1",
		"route_id" : "97-0",
		"trip_headsign" : "Trentemoult",
		"route_type" : 3,
		"route_color" : "BEABD0",
		"route_text_color" : "FFFFFF"
	},
	{
		"stop_id" : "BDSP1",
		"stop_name" : "Bd des Sports",
		"stop_lat" : "47.16584432",
		"stop_lon" : "-1.46801701",
		"wheelchair_boarding" : "1",
		"route_id" : "97-0",
		"trip_headsign" : "Vertou",
		"route_type" : 3,
		"route_color" : "BEABD0",
		"route_text_color" : "FFFFFF"
	},
	{
		"stop_id" : "BSOL1",
		"stop_name" : "Beau Soleil",
		"stop_lat" : "47.17765429",
		"stop_lon" : "-1.64463825",
		"wheelchair_boarding" : "2",
		"route_id" : "78-0",
		"trip_headsign" : "Bac du Pellerin",
		"route_type" : 3,
		"route_color" : "F8B323",
		"route_text_color" : "000000"
	},
	{
		"stop_id" : "BSOL2",
		"stop_name" : "Beau Soleil",
		"stop_lat" : "47.17752041",
		"stop_lon" : "-1.64436806",
		"wheelchair_boarding" : "2",
		"route_id" : "78-0",
		"trip_headsign" : "Neustrie",
		"route_type" : 3,
		"route_color" : "F8B323",
		"route_text_color" : "000000"
	},
	{
		"stop_id" : "BGCY2",
		"stop_name" : "Beaugency",
		"stop_lat" : "47.20381536",
		"stop_lon" : "-1.49018924",
		"wheelchair_boarding" : "1",
		"route_id" : "122-0",
		"trip_headsign" : "St Blaise",
		"route_type" : 3,
		"route_color" : "FFFFFF",
		"route_text_color" : "E53138"
	},
	{
		"stop_id" : "BGCY1",
		"stop_name" : "Beaugency",
		"stop_lat" : "47.20327126",
		"stop_lon" : "-1.48997589",
		"wheelchair_boarding" : "1",
		"route_id" : "122-0",
		"trip_headsign" : "Savarières",
		"route_type" : 3,
		"route_color" : "FFFFFF",
		"route_text_color" : "E53138"
	},
	{
		"stop_id" : "BGCY1",
		"stop_name" : "Beaugency",
		"stop_lat" : "47.20327126",
		"stop_lon" : "-1.48997589",
		"wheelchair_boarding" : "1",
		"route_id" : "152-0",
		"trip_headsign" : "La Herdrie",
		"route_type" : 3,
		"route_color" : "FFFFFF",
		"route_text_color" : "E53138"
	},
	{
		"stop_id" : "BGCY1",
		"stop_name" : "Beaugency",
		"stop_lat" : "47.20327126",
		"stop_lon" : "-1.48997589",
		"wheelchair_boarding" : "1",
		"route_id" : "C9-0",
		"trip_headsign" : "Basse Goulaine \/ Chalonges",
		"route_type" : 3,
		"route_color" : "F5B8C6",
		"route_text_color" : "000000"
	},
	{
		"stop_id" : "BGCY2",
		"stop_name" : "Beaugency",
		"stop_lat" : "47.20381536",
		"stop_lon" : "-1.49018924",
		"wheelchair_boarding" : "1",
		"route_id" : "C9-0",
		"trip_headsign" : "Pirmil",
		"route_type" : 3,
		"route_color" : "F5B8C6",
		"route_text_color" : "000000"
	},
	{
		"stop_id" : "BEGE2",
		"stop_name" : "Beauger",
		"stop_lat" : "47.23427946",
		"stop_lon" : "-1.55283174",
		"wheelchair_boarding" : "2",
		"route_id" : "10-0",
		"trip_headsign" : "Bd de Doulon",
		"route_type" : 3,
		"route_color" : "FFED00",
		"route_text_color" : "000000"
	},
	{
		"stop_id" : "BEGE1",
		"stop_name" : "Beauger",
		"stop_lat" : "47.23426481",
		"stop_lon" : "-1.55307927",
		"wheelchair_boarding" : "2",
		"route_id" : "10-0",
		"trip_headsign" : "Gare de Chantenay",
		"route_type" : 3,
		"route_color" : "FFED00",
		"route_text_color" : "000000"
	},
	{
		"stop_id" : "BEGE1",
		"stop_name" : "Beauger",
		"stop_lat" : "47.23426481",
		"stop_lon" : "-1.55307927",
		"wheelchair_boarding" : "2",
		"route_id" : "23-0",
		"trip_headsign" : "Mendès France - Bellevue",
		"route_type" : 3,
		"route_color" : "34B4E4",
		"route_text_color" : "FFFFFF"
	},
	{
		"stop_id" : "BEGE2",
		"stop_name" : "Beauger",
		"stop_lat" : "47.23427946",
		"stop_lon" : "-1.55283174",
		"wheelchair_boarding" : "2",
		"route_id" : "23-0",
		"trip_headsign" : "Haluchère Batignolles",
		"route_type" : 3,
		"route_color" : "34B4E4",
		"route_text_color" : "FFFFFF"
	},
	{
		"stop_id" : "BJOI1",
		"stop_name" : "Beaujoire",
		"stop_lat" : "47.25884933",
		"stop_lon" : "-1.52493010",
		"wheelchair_boarding" : "1",
		"route_id" : "1-0",
		"trip_headsign" : "Beaujoire \/ Ranzay",
		"route_type" : 0,
		"route_color" : "007A45",
		"route_text_color" : "FFFFFF"
	},
	{
		"stop_id" : "BJOI2",
		"stop_name" : "Beaujoire",
		"stop_lat" : "47.25876679",
		"stop_lon" : "-1.52424813",
		"wheelchair_boarding" : "1",
		"route_id" : "1-0",
		"trip_headsign" : "François Mitterrand \/ Jamet",
		"route_type" : 0,
		"route_color" : "007A45",
		"route_text_color" : "FFFFFF"
	},
	{
		"stop_id" : "BJOI6",
		"stop_name" : "Beaujoire",
		"stop_lat" : "47.25952555",
		"stop_lon" : "-1.52783915",
		"wheelchair_boarding" : "1",
		"route_id" : "115-0",
		"trip_headsign" : "Lycée Carquefou",
		"route_type" : 3,
		"route_color" : "FFFFFF",
		"route_text_color" : "E53138"
	},
	{
		"stop_id" : "BJOI7",
		"stop_name" : "Beaujoire",
		"stop_lat" : "47.25920163",
		"stop_lon" : "-1.52785674",
		"wheelchair_boarding" : "1",
		"route_id" : "115-0",
		"trip_headsign" : "Beaujoire",
		"route_type" : 3,
		"route_color" : "FFFFFF",
		"route_text_color" : "E53138"
	},
	{
		"stop_id" : "BJO58",
		"stop_name" : "Beaujoire",
		"stop_lat" : "47.25862952",
		"stop_lon" : "-1.52579264",
		"wheelchair_boarding" : "1",
		"route_id" : "1B-0",
		"trip_headsign" : "Beaujoire \/ Ranzay",
		"route_type" : 3,
		"route_color" : "007A45",
		"route_text_color" : "FFFFFF"
	},
	{
		"stop_id" : "BJO58",
		"stop_name" : "Beaujoire",
		"stop_lat" : "47.25862952",
		"stop_lon" : "-1.52579264",
		"wheelchair_boarding" : "1",
		"route_id" : "1B-0",
		"trip_headsign" : "François Mitterrand",
		"route_type" : 3,
		"route_color" : "007A45",
		"route_text_color" : "FFFFFF"
	},
	{
		"stop_id" : "BJOI7",
		"stop_name" : "Beaujoire",
		"stop_lat" : "47.25920163",
		"stop_lon" : "-1.52785674",
		"wheelchair_boarding" : "1",
		"route_id" : "75-0",
		"trip_headsign" : "Facultés",
		"route_type" : 3,
		"route_color" : "E9C389",
		"route_text_color" : "000000"
	},
	{
		"stop_id" : "BJOI6",
		"stop_name" : "Beaujoire",
		"stop_lat" : "47.25952555",
		"stop_lon" : "-1.52783915",
		"wheelchair_boarding" : "1",
		"route_id" : "75-0",
		"trip_headsign" : "Charbonneau",
		"route_type" : 3,
		"route_color" : "E9C389",
		"route_text_color" : "000000"
	},
	{
		"stop_id" : "BJOI6",
		"stop_name" : "Beaujoire",
		"stop_lat" : "47.25952555",
		"stop_lon" : "-1.52783915",
		"wheelchair_boarding" : "1",
		"route_id" : "C6-0",
		"trip_headsign" : "Chantrerie Grandes Ecoles",
		"route_type" : 3,
		"route_color" : "BEABD0",
		"route_text_color" : "FFFFFF"
	},
	{
		"stop_id" : "BJOI7",
		"stop_name" : "Beaujoire",
		"stop_lat" : "47.25920163",
		"stop_lon" : "-1.52785674",
		"wheelchair_boarding" : "1",
		"route_id" : "C6-0",
		"trip_headsign" : "Hermeland",
		"route_type" : 3,
		"route_color" : "BEABD0",
		"route_text_color" : "FFFFFF"
	},
	{
		"stop_id" : "BJOI6",
		"stop_name" : "Beaujoire",
		"stop_lat" : "47.25952555",
		"stop_lon" : "-1.52783915",
		"wheelchair_boarding" : "1",
		"route_id" : "NC-0",
		"trip_headsign" : "Chantrerie Grandes Ecoles",
		"route_type" : 3,
		"route_color" : "FFFFFF",
		"route_text_color" : "242D77"
	},
	{
		"stop_id" : "BENA3",
		"stop_name" : "Beaulieu",
		"stop_lat" : "47.20344329",
		"stop_lon" : "-1.53481098",
		"wheelchair_boarding" : "1",
		"route_id" : "26-0",
		"trip_headsign" : "Jonelière",
		"route_type" : 3,
		"route_color" : "009534",
		"route_text_color" : "FFFFFF"
	},
	{
		"stop_id" : "BENA4",
		"stop_name" : "Beaulieu",
		"stop_lat" : "47.20369020",
		"stop_lon" : "-1.53400286",
		"wheelchair_boarding" : "1",
		"route_id" : "26-0",
		"trip_headsign" : "Hôtel de Région",
		"route_type" : 3,
		"route_color" : "009534",
		"route_text_color" : "FFFFFF"
	},
	{
		"stop_id" : "BENA1",
		"stop_name" : "Beaulieu",
		"stop_lat" : "47.20414853",
		"stop_lon" : "-1.53714172",
		"wheelchair_boarding" : "1",
		"route_id" : "4-0",
		"trip_headsign" : "Foch - Cathédrale",
		"route_type" : 3,
		"route_color" : "FDC600",
		"route_text_color" : "000000"
	},
	{
		"stop_id" : "BENA2",
		"stop_name" : "Beaulieu",
		"stop_lat" : "47.20393339",
		"stop_lon" : "-1.53713804",
		"wheelchair_boarding" : "1",
		"route_id" : "4-0",
		"trip_headsign" : "Porte de Vertou",
		"route_type" : 3,
		"route_color" : "FDC600",
		"route_text_color" : "000000"
	},
	{
		"stop_id" : "BENA5",
		"stop_name" : "Beaulieu",
		"stop_lat" : "47.20385171",
		"stop_lon" : "-1.53721010",
		"wheelchair_boarding" : "2",
		"route_id" : "NS-0",
		"trip_headsign" : "Hangar à Bananes",
		"route_type" : 3,
		"route_color" : "00FFC2",
		"route_text_color" : "242D77"
	},
	{
		"stop_id" : "BRGA1",
		"stop_name" : "Beauregard",
		"stop_lat" : "47.21072345",
		"stop_lon" : "-1.65656066",
		"wheelchair_boarding" : "2",
		"route_id" : "50-0",
		"trip_headsign" : "Porte de La Chapelle",
		"route_type" : 3,
		"route_color" : "FFED00",
		"route_text_color" : "000000"
	},
	{
		"stop_id" : "BRGA2",
		"stop_name" : "Beauregard",
		"stop_lat" : "47.21008737",
		"stop_lon" : "-1.65713709",
		"wheelchair_boarding" : "1",
		"route_id" : "50-0",
		"trip_headsign" : "Basse Indre",
		"route_type" : 3,
		"route_color" : "FFED00",
		"route_text_color" : "000000"
	},
	{
		"stop_id" : "BRG78",
		"stop_name" : "Beauregard",
		"stop_lat" : "47.21084869",
		"stop_lon" : "-1.65663742",
		"wheelchair_boarding" : "2",
		"route_id" : "50-0",
		"trip_headsign" : "Basse Indre",
		"route_type" : 3,
		"route_color" : "FFED00",
		"route_text_color" : "000000"
	},
	{
		"stop_id" : "BRGA1",
		"stop_name" : "Beauregard",
		"stop_lat" : "47.21072345",
		"stop_lon" : "-1.65656066",
		"wheelchair_boarding" : "2",
		"route_id" : "91-0",
		"trip_headsign" : "Mendès France - Bellevue",
		"route_type" : 3,
		"route_color" : "009534",
		"route_text_color" : "FFFFFF"
	},
	{
		"stop_id" : "BRG78",
		"stop_name" : "Beauregard",
		"stop_lat" : "47.21084869",
		"stop_lon" : "-1.65663742",
		"wheelchair_boarding" : "2",
		"route_id" : "91-0",
		"trip_headsign" : "Couëron-Bougon",
		"route_type" : 3,
		"route_color" : "009534",
		"route_text_color" : "FFFFFF"
	},
	{
		"stop_id" : "BRGA2",
		"stop_name" : "Beauregard",
		"stop_lat" : "47.21008737",
		"stop_lon" : "-1.65713709",
		"wheelchair_boarding" : "1",
		"route_id" : "91-0",
		"trip_headsign" : "Couëron-Bougon",
		"route_type" : 3,
		"route_color" : "009534",
		"route_text_color" : "FFFFFF"
	},
	{
		"stop_id" : "BSE11",
		"stop_name" : "Beauséjour",
		"stop_lat" : "47.23818068",
		"stop_lon" : "-1.58575746",
		"wheelchair_boarding" : "1",
		"route_id" : "12-0",
		"trip_headsign" : "Jules Verne",
		"route_type" : 3,
		"route_color" : "B5DDF3",
		"route_text_color" : "000000"
	},
	{
		"stop_id" : "BSEJ9",
		"stop_name" : "Beauséjour",
		"stop_lat" : "47.23801391",
		"stop_lon" : "-1.58655590",
		"wheelchair_boarding" : "1",
		"route_id" : "12-0",
		"trip_headsign" : "Jules Verne",
		"route_type" : 3,
		"route_color" : "B5DDF3",
		"route_text_color" : "000000"
	},
	{
		"stop_id" : "BSE10",
		"stop_name" : "Beauséjour",
		"stop_lat" : "47.23791822",
		"stop_lon" : "-1.58611247",
		"wheelchair_boarding" : "1",
		"route_id" : "12-0",
		"trip_headsign" : "Beauséjour",
		"route_type" : 3,
		"route_color" : "B5DDF3",
		"route_text_color" : "000000"
	},
	{
		"stop_id" : "BSEJ2",
		"stop_name" : "Beauséjour",
		"stop_lat" : "47.23799685",
		"stop_lon" : "-1.58681914",
		"wheelchair_boarding" : "1",
		"route_id" : "3-0",
		"trip_headsign" : "Neustrie",
		"route_type" : 0,
		"route_color" : "0079BC",
		"route_text_color" : "FFFFFF"
	},
	{
		"stop_id" : "BSEJ1",
		"stop_name" : "Beauséjour",
		"stop_lat" : "47.23829509",
		"stop_lon" : "-1.58726553",
		"wheelchair_boarding" : "1",
		"route_id" : "3-0",
		"trip_headsign" : "Marcel Paul",
		"route_type" : 0,
		"route_color" : "0079BC",
		"route_text_color" : "FFFFFF"
	},
	{
		"stop_id" : "BSE11",
		"stop_name" : "Beauséjour",
		"stop_lat" : "47.23818068",
		"stop_lon" : "-1.58575746",
		"wheelchair_boarding" : "1",
		"route_id" : "59-0",
		"trip_headsign" : "Bout des Landes",
		"route_type" : 3,
		"route_color" : "F5BAC6",
		"route_text_color" : "000000"
	},
	{
		"stop_id" : "BSEJ7",
		"stop_name" : "Beauséjour",
		"stop_lat" : "47.23824329",
		"stop_lon" : "-1.58701443",
		"wheelchair_boarding" : "1",
		"route_id" : "59-0",
		"trip_headsign" : "Bout des Landes",
		"route_type" : 3,
		"route_color" : "F5BAC6",
		"route_text_color" : "000000"
	},
	{
		"stop_id" : "BSE10",
		"stop_name" : "Beauséjour",
		"stop_lat" : "47.23791822",
		"stop_lon" : "-1.58611247",
		"wheelchair_boarding" : "1",
		"route_id" : "59-0",
		"trip_headsign" : "Mendès France - Bellevue",
		"route_type" : 3,
		"route_color" : "F5BAC6",
		"route_text_color" : "000000"
	},
	{
		"stop_id" : "BSEJ5",
		"stop_name" : "Beauséjour",
		"stop_lat" : "47.23828103",
		"stop_lon" : "-1.58744039",
		"wheelchair_boarding" : "1",
		"route_id" : "59-0",
		"trip_headsign" : "Mendès France - Bellevue",
		"route_type" : 3,
		"route_color" : "F5BAC6",
		"route_text_color" : "000000"
	},
	{
		"stop_id" : "BSEJ6",
		"stop_name" : "Beauséjour",
		"stop_lat" : "47.23832155",
		"stop_lon" : "-1.58714977",
		"wheelchair_boarding" : "1",
		"route_id" : "79-0",
		"trip_headsign" : "Beauséjour",
		"route_type" : 3,
		"route_color" : "F5BAC6",
		"route_text_color" : "000000"
	},
	{
		"stop_id" : "BSEJ3",
		"stop_name" : "Beauséjour",
		"stop_lat" : "47.23795080",
		"stop_lon" : "-1.58682237",
		"wheelchair_boarding" : "1",
		"route_id" : "79-0",
		"trip_headsign" : "Orvault",
		"route_type" : 3,
		"route_color" : "F5BAC6",
		"route_text_color" : "000000"
	},
	{
		"stop_id" : "BSEJ6",
		"stop_name" : "Beauséjour",
		"stop_lat" : "47.23832155",
		"stop_lon" : "-1.58714977",
		"wheelchair_boarding" : "1",
		"route_id" : "89-0",
		"trip_headsign" : "Beauséjour",
		"route_type" : 3,
		"route_color" : "77AD1C",
		"route_text_color" : "FFFFFF"
	},
	{
		"stop_id" : "BSEJ4",
		"stop_name" : "Beauséjour",
		"stop_lat" : "47.23811486",
		"stop_lon" : "-1.58713593",
		"wheelchair_boarding" : "1",
		"route_id" : "89-0",
		"trip_headsign" : "Le Cardo",
		"route_type" : 3,
		"route_color" : "77AD1C",
		"route_text_color" : "FFFFFF"
	},
	{
		"stop_id" : "BSE11",
		"stop_name" : "Beauséjour",
		"stop_lat" : "47.23818068",
		"stop_lon" : "-1.58575746",
		"wheelchair_boarding" : "1",
		"route_id" : "C20-0",
		"trip_headsign" : "Ecole Centrale - Audencia",
		"route_type" : 3,
		"route_color" : "F8EA22",
		"route_text_color" : "000000"
	},
	{
		"stop_id" : "BSE10",
		"stop_name" : "Beauséjour",
		"stop_lat" : "47.23791822",
		"stop_lon" : "-1.58611247",
		"wheelchair_boarding" : "1",
		"route_id" : "C20-0",
		"trip_headsign" : "Gare Maritime",
		"route_type" : 3,
		"route_color" : "F8EA22",
		"route_text_color" : "000000"
	},
	{
		"stop_id" : "BSE11",
		"stop_name" : "Beauséjour",
		"stop_lat" : "47.23818068",
		"stop_lon" : "-1.58575746",
		"wheelchair_boarding" : "1",
		"route_id" : "NO-0",
		"trip_headsign" : "Hangar à Bananes",
		"route_type" : 3,
		"route_color" : "FFFA3E",
		"route_text_color" : "242D77"
	},
	{
		"stop_id" : "BEVA2",
		"stop_name" : "Beauvaiserie",
		"stop_lat" : "47.13622785",
		"stop_lon" : "-1.65417792",
		"wheelchair_boarding" : "2",
		"route_id" : "98-0",
		"trip_headsign" : "St-Léger-les-Vignes \/ Brains",
		"route_type" : 3,
		"route_color" : "F8B323",
		"route_text_color" : "000000"
	},
	{
		"stop_id" : "BEVA1",
		"stop_name" : "Beauvaiserie",
		"stop_lat" : "47.13622454",
		"stop_lon" : "-1.65440339",
		"wheelchair_boarding" : "1",
		"route_id" : "98-0",
		"trip_headsign" : "Neustrie",
		"route_type" : 3,
		"route_color" : "F8B323",
		"route_text_color" : "000000"
	},
	{
		"stop_id" : "BVOI3",
		"stop_name" : "Beauvoir",
		"stop_lat" : "47.17897519",
		"stop_lon" : "-1.62631982",
		"wheelchair_boarding" : "1",
		"route_id" : "36-0",
		"trip_headsign" : "Croix Jeannette",
		"route_type" : 3,
		"route_color" : "00A4A7",
		"route_text_color" : "FFFFFF"
	},
	{
		"stop_id" : "BVOI4",
		"stop_name" : "Beauvoir",
		"stop_lat" : "47.17884915",
		"stop_lon" : "-1.62668434",
		"wheelchair_boarding" : "1",
		"route_id" : "36-0",
		"trip_headsign" : "Greneraie",
		"route_type" : 3,
		"route_color" : "00A4A7",
		"route_text_color" : "FFFFFF"
	},
	{
		"stop_id" : "BVOI2",
		"stop_name" : "Beauvoir",
		"stop_lat" : "47.17846824",
		"stop_lon" : "-1.63068395",
		"wheelchair_boarding" : "2",
		"route_id" : "78-0",
		"trip_headsign" : "Neustrie",
		"route_type" : 3,
		"route_color" : "F8B323",
		"route_text_color" : "000000"
	},
	{
		"stop_id" : "BVOI1",
		"stop_name" : "Beauvoir",
		"stop_lat" : "47.17850340",
		"stop_lon" : "-1.63120572",
		"wheelchair_boarding" : "2",
		"route_id" : "78-0",
		"trip_headsign" : "Bac du Pellerin",
		"route_type" : 3,
		"route_color" : "F8B323",
		"route_text_color" : "000000"
	},
	{
		"stop_id" : "BEHI1",
		"stop_name" : "Behinière",
		"stop_lat" : "47.19776970",
		"stop_lon" : "-1.79257748",
		"wheelchair_boarding" : "2",
		"route_id" : "128-0",
		"trip_headsign" : "Pé de Buzay",
		"route_type" : 3,
		"route_color" : "FFFFFF",
		"route_text_color" : "E53138"
	},
	{
		"stop_id" : "BEHI2",
		"stop_name" : "Behinière",
		"stop_lat" : "47.19701789",
		"stop_lon" : "-1.79093353",
		"wheelchair_boarding" : "1",
		"route_id" : "128-0",
		"trip_headsign" : "Lycée d'Orbigny",
		"route_type" : 3,
		"route_color" : "FFFFFF",
		"route_text_color" : "E53138"
	},
	{
		"stop_id" : "BEIL1",
		"stop_name" : "Beillevaire",
		"stop_lat" : "47.24955677",
		"stop_lon" : "-1.60739497",
		"wheelchair_boarding" : "1",
		"route_id" : "129-0",
		"trip_headsign" : "Les Anges",
		"route_type" : 3,
		"route_color" : "FFFFFF",
		"route_text_color" : "E53138"
	},
	{
		"stop_id" : "BEIL2",
		"stop_name" : "Beillevaire",
		"stop_lat" : "47.24938735",
		"stop_lon" : "-1.60726607",
		"wheelchair_boarding" : "1",
		"route_id" : "139-0",
		"trip_headsign" : "Angevinière",
		"route_type" : 3,
		"route_color" : "FFFFFF",
		"route_text_color" : "E53138"
	},
	{
		"stop_id" : "BEIL1",
		"stop_name" : "Beillevaire",
		"stop_lat" : "47.24955677",
		"stop_lon" : "-1.60739497",
		"wheelchair_boarding" : "1",
		"route_id" : "169-0",
		"trip_headsign" : "Sautron",
		"route_type" : 3,
		"route_color" : "FFFFFF",
		"route_text_color" : "E53138"
	},
	{
		"stop_id" : "BEIL2",
		"stop_name" : "Beillevaire",
		"stop_lat" : "47.24938735",
		"stop_lon" : "-1.60726607",
		"wheelchair_boarding" : "1",
		"route_id" : "179-0",
		"trip_headsign" : "Orvault-Morlière",
		"route_type" : 3,
		"route_color" : "FFFFFF",
		"route_text_color" : "E53138"
	},
	{
		"stop_id" : "BEIL1",
		"stop_name" : "Beillevaire",
		"stop_lat" : "47.24955677",
		"stop_lon" : "-1.60739497",
		"wheelchair_boarding" : "1",
		"route_id" : "179-0",
		"trip_headsign" : "Les Anges",
		"route_type" : 3,
		"route_color" : "FFFFFF",
		"route_text_color" : "E53138"
	},
	{
		"stop_id" : "BEIL2",
		"stop_name" : "Beillevaire",
		"stop_lat" : "47.24938735",
		"stop_lon" : "-1.60726607",
		"wheelchair_boarding" : "1",
		"route_id" : "189-0",
		"trip_headsign" : "Angevinière",
		"route_type" : 3,
		"route_color" : "FFFFFF",
		"route_text_color" : "E53138"
	},
	{
		"stop_id" : "BEIL1",
		"stop_name" : "Beillevaire",
		"stop_lat" : "47.24955677",
		"stop_lon" : "-1.60739497",
		"wheelchair_boarding" : "1",
		"route_id" : "50-0",
		"trip_headsign" : "Porte de La Chapelle",
		"route_type" : 3,
		"route_color" : "FFED00",
		"route_text_color" : "000000"
	},
	{
		"stop_id" : "BEIL2",
		"stop_name" : "Beillevaire",
		"stop_lat" : "47.24938735",
		"stop_lon" : "-1.60726607",
		"wheelchair_boarding" : "1",
		"route_id" : "50-0",
		"trip_headsign" : "Basse Indre",
		"route_type" : 3,
		"route_color" : "FFED00",
		"route_text_color" : "000000"
	},
	{
		"stop_id" : "BEIL1",
		"stop_name" : "Beillevaire",
		"stop_lat" : "47.24955677",
		"stop_lon" : "-1.60739497",
		"wheelchair_boarding" : "1",
		"route_id" : "69-0",
		"trip_headsign" : "Sautron",
		"route_type" : 3,
		"route_color" : "C0893A",
		"route_text_color" : "FFFFFF"
	},
	{
		"stop_id" : "BEIL2",
		"stop_name" : "Beillevaire",
		"stop_lat" : "47.24938735",
		"stop_lon" : "-1.60726607",
		"wheelchair_boarding" : "1",
		"route_id" : "69-0",
		"trip_headsign" : "Orvault Morlière",
		"route_type" : 3,
		"route_color" : "C0893A",
		"route_text_color" : "FFFFFF"
	},
	{
		"stop_id" : "BEIL1",
		"stop_name" : "Beillevaire",
		"stop_lat" : "47.24955677",
		"stop_lon" : "-1.60739497",
		"wheelchair_boarding" : "1",
		"route_id" : "89-0",
		"trip_headsign" : "Le Cardo",
		"route_type" : 3,
		"route_color" : "77AD1C",
		"route_text_color" : "FFFFFF"
	},
	{
		"stop_id" : "BEIL2",
		"stop_name" : "Beillevaire",
		"stop_lat" : "47.24938735",
		"stop_lon" : "-1.60726607",
		"wheelchair_boarding" : "1",
		"route_id" : "89-0",
		"trip_headsign" : "Beauséjour",
		"route_type" : 3,
		"route_color" : "77AD1C",
		"route_text_color" : "FFFFFF"
	},
	{
		"stop_id" : "BAIR2",
		"stop_name" : "Bel Air",
		"stop_lat" : "47.22545539",
		"stop_lon" : "-1.55924100",
		"wheelchair_boarding" : "1",
		"route_id" : "12-0",
		"trip_headsign" : "Beauséjour",
		"route_type" : 3,
		"route_color" : "B5DDF3",
		"route_text_color" : "000000"
	},
	{
		"stop_id" : "BAIR1",
		"stop_name" : "Bel Air",
		"stop_lat" : "47.22575662",
		"stop_lon" : "-1.55968206",
		"wheelchair_boarding" : "1",
		"route_id" : "12-0",
		"trip_headsign" : "Jules Verne",
		"route_type" : 3,
		"route_color" : "B5DDF3",
		"route_text_color" : "000000"
	},